[{"name": "Ice Cube Neutrino N Observatory", "instruments": null, "altitude": -2452, "type": "Modern Astronomical Observatory", "description": "Modern Astronomical Observatory [-2452 meters AMSL]", "geometry": {"type": "Feature", "geometry": {"coordinates": [0.0, -90.0], "type": "Point"}, "properties": {}}, "geo_point_2d": {"lon": 0.0, "lat": -90.0}},{"name": "C\u00f3rdoba Astronomical Observatory C\u00f3rdoba", "instruments": null, "altitude": 434, "type": "Modern Astronomical Observatory", "description": "Modern Astronomical Observatory [434 meters AMSL]", "geometry": {"type": "Feature", "geometry": {"coordinates": [-64.1966666666667, -31.4216666666667], "type": "Point"}, "properties": {}}, "geo_point_2d": {"lon": -64.1966666666667, "lat": -31.4216666666667}},{"name": "La Plata Astronomical Observatory La Plata", "instruments": null, "altitude": 17, "type": "Modern Astronomical Observatory", "description": "Modern Astronomical Observatory [17 meters AMSL]", "geometry": {"type": "Feature", "geometry": {"coordinates": [-57.9316666666667, -34.9083333333333], "type": "Point"}, "properties": {}}, "geo_point_2d": {"lon": -57.9316666666667, "lat": -34.9083333333333}},{"name": "Vienna University Observatory Vienna", "instruments": null, "altitude": 241, "type": "Modern Astronomical Observatory", "description": "Modern Astronomical Observatory [241 meters AMSL]", "geometry": {"type": "Feature", "geometry": {"coordinates": [16.3366666666667, 48.2316666666667], "type": "Point"}, "properties": {}}, "geo_point_2d": {"lon": 16.3366666666667, "lat": 48.2316666666667}},{"name": "Mets\u00e4hovi Observatory Kirkkonummi", "instruments": null, "altitude": 60, "type": "Modern Astronomical Observatory", "description": "Modern Astronomical Observatory [60 meters AMSL]", "geometry": {"type": "Feature", "geometry": {"coordinates": [24.3966666666667, 60.22], "type": "Point"}, "properties": {}}, "geo_point_2d": {"lon": 24.3966666666667, "lat": 60.22}},{"name": "Besan\u00e7on Observatory Besan\u00e7on", "instruments": null, "altitude": 312, "type": "Modern Astronomical Observatory", "description": "Modern Astronomical Observatory [312 meters AMSL]", "geometry": {"type": "Feature", "geometry": {"coordinates": [5.98666666666667, 47.25], "type": "Point"}, "properties": {}}, "geo_point_2d": {"lon": 5.98666666666667, "lat": 47.25}},{"name": "Capodimonte Astronomical Observatory Naples", "instruments": null, "altitude": 150, "type": "Modern Astronomical Observatory", "description": "Modern Astronomical Observatory [150 meters AMSL]", "geometry": {"type": "Feature", "geometry": {"coordinates": [14.255, 40.8633333333333], "type": "Point"}, "properties": {}}, "geo_point_2d": {"lon": 14.255, "lat": 40.8633333333333}},{"name": "Daeduk Radio Astronomical Observatory R Taejeon", "instruments": "Radio", "altitude": 120, "type": "Modern Astronomical Observatory", "description": "Modern Astronomical Observatory [120 meters AMSL]", "geometry": {"type": "Feature", "geometry": {"coordinates": [127.371666666667, 36.3983333333333], "type": "Point"}, "properties": {}}, "geo_point_2d": {"lon": 127.371666666667, "lat": 36.3983333333333}},{"name": "Leiden Observatory Current", "instruments": null, "altitude": null, "type": "Modern Astronomical Observatory", "description": "Modern Astronomical Observatory", "geometry": {"type": "Feature", "geometry": {"coordinates": [4.458132, 52.168707], "type": "Point"}, "properties": {}}, "geo_point_2d": {"lon": 4.458132, "lat": 52.168707}},{"name": "Sayan Mtns. Radiophys. Observatory Sayan Mountains", "instruments": null, "altitude": 832, "type": "Modern Astronomical Observatory", "description": "Modern Astronomical Observatory [832 meters AMSL]", "geometry": {"type": "Feature", "geometry": {"coordinates": [102.208333333333, 51.7583333333333], "type": "Point"}, "properties": {}}, "geo_point_2d": {"lon": 102.208333333333, "lat": 51.7583333333333}},{"name": "Skalnat\u00e9 Pleso Observatory Poprad", "instruments": null, "altitude": 1783, "type": "Modern Astronomical Observatory", "description": "Modern Astronomical Observatory [1783 meters AMSL]", "geometry": {"type": "Feature", "geometry": {"coordinates": [20.245, 49.1883333333333], "type": "Point"}, "properties": {}}, "geo_point_2d": {"lon": 20.245, "lat": 49.1883333333333}},{"name": "Istanbul University Observatory Istanbul", "instruments": null, "altitude": 65, "type": "Modern Astronomical Observatory", "description": "Modern Astronomical Observatory [65 meters AMSL]", "geometry": {"type": "Feature", "geometry": {"coordinates": [28.965, 41.0116666666667], "type": "Point"}, "properties": {}}, "geo_point_2d": {"lon": 28.965, "lat": 41.0116666666667}},{"name": "Lvov University Observatory Lvov", "instruments": null, "altitude": 330, "type": "Modern Astronomical Observatory", "description": "Modern Astronomical Observatory [330 meters AMSL]", "geometry": {"type": "Feature", "geometry": {"coordinates": [24.03, 49.8333333333333], "type": "Point"}, "properties": {}}, "geo_point_2d": {"lon": 24.03, "lat": 49.8333333333333}},{"name": "University of London Observatory Mill Hill, England", "instruments": null, "altitude": 81, "type": "Modern Astronomical Observatory", "description": "Modern Astronomical Observatory [81 meters AMSL]", "geometry": {"type": "Feature", "geometry": {"coordinates": [-0.24, 51.6133333333333], "type": "Point"}, "properties": {}}, "geo_point_2d": {"lon": -0.24, "lat": 51.6133333333333}},{"name": "Palomar Observatory Palomar Mtn.", "instruments": null, "altitude": 1706, "type": "Modern Astronomical Observatory", "description": "Modern Astronomical Observatory [1706 meters AMSL]", "geometry": {"type": "Feature", "geometry": {"coordinates": [-116.863333333333, 33.3566666666667], "type": "Point"}, "properties": {}}, "geo_point_2d": {"lon": -116.863333333333, "lat": 33.3566666666667}},{"name": "International Latitude Observatory Gaithersburg", "instruments": null, "altitude": null, "type": "Modern Astronomical Observatory", "description": "Modern Astronomical Observatory", "geometry": {"type": "Feature", "geometry": {"coordinates": [-77.1994444444445, 39.1372222222222], "type": "Point"}, "properties": {}}, "geo_point_2d": {"lon": -77.1994444444445, "lat": 39.1372222222222}},{"name": "Sagamore Hill Radio Observatory R Hamilton", "instruments": "Radio", "altitude": 53, "type": "Modern Astronomical Observatory", "description": "Modern Astronomical Observatory [53 meters AMSL]", "geometry": {"type": "Feature", "geometry": {"coordinates": [-70.8216666666667, 42.6316666666667], "type": "Point"}, "properties": {}}, "geo_point_2d": {"lon": -70.8216666666667, "lat": 42.6316666666667}},{"name": "Apache Point Observatory Sunspot", "instruments": null, "altitude": 2781, "type": "Modern Astronomical Observatory", "description": "Modern Astronomical Observatory [2781 meters AMSL]", "geometry": {"type": "Feature", "geometry": {"coordinates": [-105.82, 32.78], "type": "Point"}, "properties": {}}, "geo_point_2d": {"lon": -105.82, "lat": 32.78}},{"name": "L. Figl Astrophysical Observatory St. Corona at Sch\u00f6pfl", "instruments": null, "altitude": 890, "type": "Modern Astronomical Observatory", "description": "Modern Astronomical Observatory [890 meters AMSL]", "geometry": {"type": "Feature", "geometry": {"coordinates": [15.9233333333333, 48.0833333333333], "type": "Point"}, "properties": {}}, "geo_point_2d": {"lon": 15.9233333333333, "lat": 48.0833333333333}},{"name": "Astronomical and Astrophys. Institute Brussels", "instruments": null, "altitude": 147, "type": "Modern Astronomical Observatory", "description": "Modern Astronomical Observatory [147 meters AMSL]", "geometry": {"type": "Feature", "geometry": {"coordinates": [4.38333333333333, 50.8133333333333], "type": "Point"}, "properties": {}}, "geo_point_2d": {"lon": 4.38333333333333, "lat": 50.8133333333333}},{"name": "Pico dos Dias Observatory Itajub\u00e1/Pico dos Dias", "instruments": null, "altitude": 1870, "type": "Modern Astronomical Observatory", "description": "Modern Astronomical Observatory [1870 meters AMSL]", "geometry": {"type": "Feature", "geometry": {"coordinates": [-45.5833333333333, -22.535], "type": "Point"}, "properties": {}}, "geo_point_2d": {"lon": -45.5833333333333, "lat": -22.535}},{"name": "Rozhen National Astronomical Observatory Rozhen", "instruments": null, "altitude": 1759, "type": "Modern Astronomical Observatory", "description": "Modern Astronomical Observatory [1759 meters AMSL]", "geometry": {"type": "Feature", "geometry": {"coordinates": [24.7433333333333, 41.6933333333333], "type": "Point"}, "properties": {}}, "geo_point_2d": {"lon": 24.7433333333333, "lat": 41.6933333333333}},{"name": "Wilhelm Struve Astrophys. Observatory Tartu", "instruments": null, "altitude": null, "type": "Modern Astronomical Observatory", "description": "Modern Astronomical Observatory", "geometry": {"type": "Feature", "geometry": {"coordinates": [26.4666666666667, 58.2666666666667], "type": "Point"}, "properties": {}}, "geo_point_2d": {"lon": 26.4666666666667, "lat": 58.2666666666667}},{"name": "Nyrolan", "instruments": null, "altitude": null, "type": "Modern Astronomical Observatory", "description": "Modern Astronomical Observatory", "geometry": {"type": "Feature", "geometry": {"coordinates": [25.513056, 62.342222], "type": "Point"}, "properties": {}}, "geo_point_2d": {"lon": 25.513056, "lat": 62.342222}},{"name": "G\u00f6ttingen University Observatory G\u00f6ttingen", "instruments": null, "altitude": 159, "type": "Modern Astronomical Observatory", "description": "Modern Astronomical Observatory [159 meters AMSL]", "geometry": {"type": "Feature", "geometry": {"coordinates": [9.94333333333333, 51.53], "type": "Point"}, "properties": {}}, "geo_point_2d": {"lon": 9.94333333333333, "lat": 51.53}},{"name": "Okayama Astrophysical Observatory Kurashiki/Mt. Chikurin", "instruments": null, "altitude": 372, "type": "Modern Astronomical Observatory", "description": "Modern Astronomical Observatory [372 meters AMSL]", "geometry": {"type": "Feature", "geometry": {"coordinates": [133.596666666667, 34.5733333333333], "type": "Point"}, "properties": {}}, "geo_point_2d": {"lon": 133.596666666667, "lat": 34.5733333333333}},{"name": "Guillermo Haro Astrophys. Observatory Cananea/La Mariquita  Mtn.", "instruments": null, "altitude": 2480, "type": "Modern Astronomical Observatory", "description": "Modern Astronomical Observatory [2480 meters AMSL]", "geometry": {"type": "Feature", "geometry": {"coordinates": [-110.383333333333, 31.0533333333333], "type": "Point"}, "properties": {}}, "geo_point_2d": {"lon": -110.383333333333, "lat": 31.0533333333333}},{"name": "Hartebeeshoek Radio Astronomical Observatory R Hartebeeshoek", "instruments": "Radio", "altitude": 1391, "type": "Modern Astronomical Observatory", "description": "Modern Astronomical Observatory [1391 meters AMSL]", "geometry": {"type": "Feature", "geometry": {"coordinates": [27.685, -25.89], "type": "Point"}, "properties": {}}, "geo_point_2d": {"lon": 27.685, "lat": -25.89}},{"name": "ROLO Flagstaff", "instruments": null, "altitude": null, "type": "Modern Astronomical Observatory", "description": "Modern Astronomical Observatory", "geometry": {"type": "Feature", "geometry": {"coordinates": [-111.634431, 35.214722], "type": "Point"}, "properties": {}}, "geo_point_2d": {"lon": -111.634431, "lat": 35.214722}},{"name": "Steward Observatory Sta. Tucson/Kitt Peak", "instruments": null, "altitude": 2071, "type": "Modern Astronomical Observatory", "description": "Modern Astronomical Observatory [2071 meters AMSL]", "geometry": {"type": "Feature", "geometry": {"coordinates": [-111.6, 31.9633333333333], "type": "Point"}, "properties": {}}, "geo_point_2d": {"lon": -111.6, "lat": 31.9633333333333}},{"name": "Western Conn. State University Observatory Danbury", "instruments": null, "altitude": 128, "type": "Modern Astronomical Observatory", "description": "Modern Astronomical Observatory [128 meters AMSL]", "geometry": {"type": "Feature", "geometry": {"coordinates": [-73.445, 41.4], "type": "Point"}, "properties": {}}, "geo_point_2d": {"lon": -73.445, "lat": 41.4}},{"name": "Rosemary Hill Observatory Bronson", "instruments": null, "altitude": 44, "type": "Modern Astronomical Observatory", "description": "Modern Astronomical Observatory [44 meters AMSL]", "geometry": {"type": "Feature", "geometry": {"coordinates": [-82.5866666666667, 29.4], "type": "Point"}, "properties": {}}, "geo_point_2d": {"lon": -82.5866666666667, "lat": 29.4}},{"name": "Morrison Observatory Fayette", "instruments": null, "altitude": 228, "type": "Modern Astronomical Observatory", "description": "Modern Astronomical Observatory [228 meters AMSL]", "geometry": {"type": "Feature", "geometry": {"coordinates": [-92.6966666666667, 39.1516666666667], "type": "Point"}, "properties": {}}, "geo_point_2d": {"lon": -92.6966666666667, "lat": 39.1516666666667}},{"name": "Cincinnati Observatory Cincinnati", "instruments": null, "altitude": 247, "type": "Modern Astronomical Observatory", "description": "Modern Astronomical Observatory [247 meters AMSL]", "geometry": {"type": "Feature", "geometry": {"coordinates": [-84.4233333333333, 39.1383333333333], "type": "Point"}, "properties": {}}, "geo_point_2d": {"lon": -84.4233333333333, "lat": 39.1383333333333}},{"name": "Perkins Observatory Delaware", "instruments": null, "altitude": 280, "type": "Modern Astronomical Observatory", "description": "Modern Astronomical Observatory [280 meters AMSL]", "geometry": {"type": "Feature", "geometry": {"coordinates": [-83.055, 40.2516666666667], "type": "Point"}, "properties": {}}, "geo_point_2d": {"lon": -83.055, "lat": 40.2516666666667}},{"name": "Allegheny Observatory Pittsburgh", "instruments": null, "altitude": 380, "type": "Modern Astronomical Observatory", "description": "Modern Astronomical Observatory [380 meters AMSL]", "geometry": {"type": "Feature", "geometry": {"coordinates": [-80.0216666666667, 40.4833333333333], "type": "Point"}, "properties": {}}, "geo_point_2d": {"lon": -80.0216666666667, "lat": 40.4833333333333}},{"name": "Bucknell University Observatory Lewisburg", "instruments": null, "altitude": 170, "type": "Modern Astronomical Observatory", "description": "Modern Astronomical Observatory [170 meters AMSL]", "geometry": {"type": "Feature", "geometry": {"coordinates": [-76.8816666666667, 40.9516666666667], "type": "Point"}, "properties": {}}, "geo_point_2d": {"lon": -76.8816666666667, "lat": 40.9516666666667}},{"name": "Manastash Ridge Observatory Ellensburg/Manastash Ridge", "instruments": null, "altitude": 1198, "type": "Modern Astronomical Observatory", "description": "Modern Astronomical Observatory [1198 meters AMSL]", "geometry": {"type": "Feature", "geometry": {"coordinates": [-120.723333333333, 46.9516666666667], "type": "Point"}, "properties": {}}, "geo_point_2d": {"lon": -120.723333333333, "lat": 46.9516666666667}},{"name": "Tashkent Observatory Tashkent", "instruments": null, "altitude": 477, "type": "Modern Astronomical Observatory", "description": "Modern Astronomical Observatory [477 meters AMSL]", "geometry": {"type": "Feature", "geometry": {"coordinates": [69.2933333333333, 41.325], "type": "Point"}, "properties": {}}, "geo_point_2d": {"lon": 69.2933333333333, "lat": 41.325}},{"name": "India, Varanasi Yantra Mandir / Temple of Instruments", "instruments": null, "altitude": null, "type": "Ancient Astronomical Observatory", "description": "Ancient Astronomical Observatory", "geometry": {"type": "Feature", "geometry": {"coordinates": [83.006944, 25.325], "type": "Point"}, "properties": {}}, "geo_point_2d": {"lon": 83.006944, "lat": 25.325}},{"name": "USA New Mexico, Chaco Canyon, Pueblo Bonito", "instruments": null, "altitude": null, "type": "Ancient Astronomical Observatory", "description": "Ancient Astronomical Observatory", "geometry": {"type": "Feature", "geometry": {"coordinates": [-107.958, 36.0588], "type": "Point"}, "properties": {}}, "geo_point_2d": {"lon": -107.958, "lat": 36.0588}},{"name": "Abrah\u00e3o de Moraes Observatory R Valinhos", "instruments": "Radio", "altitude": 850, "type": "Modern Astronomical Observatory", "description": "Modern Astronomical Observatory [850 meters AMSL]", "geometry": {"type": "Feature", "geometry": {"coordinates": [-46.9666666666667, -23.0016666666667], "type": "Point"}, "properties": {}}, "geo_point_2d": {"lon": -46.9666666666667, "lat": -23.0016666666667}},{"name": "Las Campanas Observatory Vallenar/Cerro Las Campanas", "instruments": null, "altitude": 2282, "type": "Modern Astronomical Observatory", "description": "Modern Astronomical Observatory [2282 meters AMSL]", "geometry": {"type": "Feature", "geometry": {"coordinates": [-70.7, -29.0083333333333], "type": "Point"}, "properties": {}}, "geo_point_2d": {"lon": -70.7, "lat": -29.0083333333333}},{"name": "State Observatory Heidelberg/K\u00f6nigstuhl", "instruments": null, "altitude": 570, "type": "Modern Astronomical Observatory", "description": "Modern Astronomical Observatory [570 meters AMSL]", "geometry": {"type": "Feature", "geometry": {"coordinates": [8.72166666666667, 49.3983333333333], "type": "Point"}, "properties": {}}, "geo_point_2d": {"lon": 8.72166666666667, "lat": 49.3983333333333}},{"name": "Tremsdorf Radio Astronomical Observatory R Tremsdorf", "instruments": "Radio", "altitude": 35, "type": "Modern Astronomical Observatory", "description": "Modern Astronomical Observatory [35 meters AMSL]", "geometry": {"type": "Feature", "geometry": {"coordinates": [13.1366666666667, 52.285], "type": "Point"}, "properties": {}}, "geo_point_2d": {"lon": 13.1366666666667, "lat": 52.285}},{"name": "Incoherent Scatter Facility R S\u00f8ndre Str\u00f8mfjord", "instruments": "Radio", "altitude": 180, "type": "Modern Astronomical Observatory", "description": "Modern Astronomical Observatory [180 meters AMSL]", "geometry": {"type": "Feature", "geometry": {"coordinates": [-50.95, 66.9866666666667], "type": "Point"}, "properties": {}}, "geo_point_2d": {"lon": -50.95, "lat": 66.9866666666667}},{"name": "Damecuta Observatory Anacapri", "instruments": null, "altitude": 137, "type": "Modern Astronomical Observatory", "description": "Modern Astronomical Observatory [137 meters AMSL]", "geometry": {"type": "Feature", "geometry": {"coordinates": [14.1966666666667, 40.5583333333333], "type": "Point"}, "properties": {}}, "geo_point_2d": {"lon": 14.1966666666667, "lat": 40.5583333333333}},{"name": "Mizusawa Astrogeodynamics Observatory Mizusawa", "instruments": null, "altitude": 61, "type": "Modern Astronomical Observatory", "description": "Modern Astronomical Observatory [61 meters AMSL]", "geometry": {"type": "Feature", "geometry": {"coordinates": [141.131666666667, 39.135], "type": "Point"}, "properties": {}}, "geo_point_2d": {"lon": 141.131666666667, "lat": 39.135}},{"name": "Sirahama Hydrographic Observatory Sirahama", "instruments": null, "altitude": 172, "type": "Modern Astronomical Observatory", "description": "Modern Astronomical Observatory [172 meters AMSL]", "geometry": {"type": "Feature", "geometry": {"coordinates": [138.988333333333, 34.7133333333333], "type": "Point"}, "properties": {}}, "geo_point_2d": {"lon": 138.988333333333, "lat": 34.7133333333333}},{"name": "Sonnenborgh Observatory Utrecht", "instruments": null, "altitude": 14, "type": "Modern Astronomical Observatory", "description": "Modern Astronomical Observatory [14 meters AMSL]", "geometry": {"type": "Feature", "geometry": {"coordinates": [5.13, 52.0866666666667], "type": "Point"}, "properties": {}}, "geo_point_2d": {"lon": 5.13, "lat": 52.0866666666667}},{"name": "Piwnice Astronomical Observatory R Piwnice", "instruments": "Radio", "altitude": 100, "type": "Modern Astronomical Observatory", "description": "Modern Astronomical Observatory [100 meters AMSL]", "geometry": {"type": "Feature", "geometry": {"coordinates": [18.5566666666667, 53.095], "type": "Point"}, "properties": {}}, "geo_point_2d": {"lon": 18.5566666666667, "lat": 53.095}},{"name": "Wroclaw University Astronomical Observatory Wroclaw", "instruments": null, "altitude": 115, "type": "Modern Astronomical Observatory", "description": "Modern Astronomical Observatory [115 meters AMSL]", "geometry": {"type": "Feature", "geometry": {"coordinates": [17.0883333333333, 51.1116666666667], "type": "Point"}, "properties": {}}, "geo_point_2d": {"lon": 17.0883333333333, "lat": 51.1116666666667}},{"name": "University of Alabama Observatory Tuscaloosa", "instruments": null, "altitude": 87, "type": "Modern Astronomical Observatory", "description": "Modern Astronomical Observatory [87 meters AMSL]", "geometry": {"type": "Feature", "geometry": {"coordinates": [-87.5416666666667, 33.21], "type": "Point"}, "properties": {}}, "geo_point_2d": {"lon": -87.5416666666667, "lat": 33.21}},{"name": "National Radio Astronomical Observatory R Tucson/Kitt Peak", "instruments": "Radio", "altitude": 1939, "type": "Modern Astronomical Observatory", "description": "Modern Astronomical Observatory [1939 meters AMSL]", "geometry": {"type": "Feature", "geometry": {"coordinates": [-111.615, 31.9533333333333], "type": "Point"}, "properties": {}}, "geo_point_2d": {"lon": -111.615, "lat": 31.9533333333333}},{"name": "University of Maryland Observatory R College Park", "instruments": "Radio", "altitude": 53, "type": "Modern Astronomical Observatory", "description": "Modern Astronomical Observatory [53 meters AMSL]", "geometry": {"type": "Feature", "geometry": {"coordinates": [-76.9566666666667, 39.0016666666667], "type": "Point"}, "properties": {}}, "geo_point_2d": {"lon": -76.9566666666667, "lat": 39.0016666666667}},{"name": "Corralitos Observatory Las Cruces", "instruments": null, "altitude": 1453, "type": "Modern Astronomical Observatory", "description": "Modern Astronomical Observatory [1453 meters AMSL]", "geometry": {"type": "Feature", "geometry": {"coordinates": [-107.043333333333, 32.38], "type": "Point"}, "properties": {}}, "geo_point_2d": {"lon": -107.043333333333, "lat": 32.38}},{"name": "Saint Croix", "instruments": null, "altitude": null, "type": "Modern Astronomical Observatory", "description": "Modern Astronomical Observatory", "geometry": {"type": "Feature", "geometry": {"coordinates": [-64.583631, 17.756578], "type": "Point"}, "properties": {}}, "geo_point_2d": {"lon": -64.583631, "lat": 17.756578}},{"name": "Llano del Hato Observatory M\u00e9rida", "instruments": null, "altitude": 3610, "type": "Modern Astronomical Observatory", "description": "Modern Astronomical Observatory [3610 meters AMSL]", "geometry": {"type": "Feature", "geometry": {"coordinates": [-70.8666666666667, 8.79], "type": "Point"}, "properties": {}}, "geo_point_2d": {"lon": -70.8666666666667, "lat": 8.79}},{"name": "Mount Pleasant Radio Astronomical Observatory R Hobart, Tasmania", "instruments": "Radio", "altitude": 43, "type": "Modern Astronomical Observatory", "description": "Modern Astronomical Observatory [43 meters AMSL]", "geometry": {"type": "Feature", "geometry": {"coordinates": [147.44, -42.805], "type": "Point"}, "properties": {}}, "geo_point_2d": {"lon": 147.44, "lat": -42.805}},{"name": "Beijing Normal University Observatory R Beijing", "instruments": "Radio", "altitude": 70, "type": "Modern Astronomical Observatory", "description": "Modern Astronomical Observatory [70 meters AMSL]", "geometry": {"type": "Feature", "geometry": {"coordinates": [116.36, 39.9566666666667], "type": "Point"}, "properties": {}}, "geo_point_2d": {"lon": 116.36, "lat": 39.9566666666667}},{"name": "Charles University Astronomical Institute Prague", "instruments": null, "altitude": 267, "type": "Modern Astronomical Observatory", "description": "Modern Astronomical Observatory [267 meters AMSL]", "geometry": {"type": "Feature", "geometry": {"coordinates": [14.395, 50.0766666666667], "type": "Point"}, "properties": {}}, "geo_point_2d": {"lon": 14.395, "lat": 50.0766666666667}},{"name": "Ole R\u00f8mer Observatory \u00c5rhus", "instruments": null, "altitude": 50, "type": "Modern Astronomical Observatory", "description": "Modern Astronomical Observatory [50 meters AMSL]", "geometry": {"type": "Feature", "geometry": {"coordinates": [10.1966666666667, 56.1283333333333], "type": "Point"}, "properties": {}}, "geo_point_2d": {"lon": 10.1966666666667, "lat": 56.1283333333333}},{"name": "Max Planck Institute for Radio Astronomical R Effelsberg", "instruments": "Radio", "altitude": 369, "type": "Modern Astronomical Observatory", "description": "Modern Astronomical Observatory [369 meters AMSL]", "geometry": {"type": "Feature", "geometry": {"coordinates": [6.885, 50.5266666666667], "type": "Point"}, "properties": {}}, "geo_point_2d": {"lon": 6.885, "lat": 50.5266666666667}},{"name": "Stockert Radio Observatory R Eschweiler", "instruments": "Radio", "altitude": 435, "type": "Modern Astronomical Observatory", "description": "Modern Astronomical Observatory [435 meters AMSL]", "geometry": {"type": "Feature", "geometry": {"coordinates": [6.72333333333333, 50.57], "type": "Point"}, "properties": {}}, "geo_point_2d": {"lon": 6.72333333333333, "lat": 50.57}},{"name": "Radio Astronomical Center R Udhagamandalam (Ooty)", "instruments": "Radio", "altitude": 2150, "type": "Modern Astronomical Observatory", "description": "Modern Astronomical Observatory [2150 meters AMSL]", "geometry": {"type": "Feature", "geometry": {"coordinates": [76.6666666666667, 11.3816666666667], "type": "Point"}, "properties": {}}, "geo_point_2d": {"lon": 76.6666666666667, "lat": 11.3816666666667}},{"name": "Kyoto University Astronomical Dept. Observatory Kyoto", "instruments": null, "altitude": 86, "type": "Modern Astronomical Observatory", "description": "Modern Astronomical Observatory [86 meters AMSL]", "geometry": {"type": "Feature", "geometry": {"coordinates": [135.786666666667, 35.0283333333333], "type": "Point"}, "properties": {}}, "geo_point_2d": {"lon": 135.786666666667, "lat": 35.0283333333333}},{"name": "Latvian State University Astronomical Observatory L Riga", "instruments": "Laser", "altitude": 39, "type": "Modern Astronomical Observatory", "description": "Modern Astronomical Observatory [39 meters AMSL]", "geometry": {"type": "Feature", "geometry": {"coordinates": [24.1166666666667, 56.9516666666667], "type": "Point"}, "properties": {}}, "geo_point_2d": {"lon": 24.1166666666667, "lat": 56.9516666666667}},{"name": "Lisbon Astronomical Observatory Lisbon", "instruments": null, "altitude": 111, "type": "Modern Astronomical Observatory", "description": "Modern Astronomical Observatory [111 meters AMSL]", "geometry": {"type": "Feature", "geometry": {"coordinates": [-9.18666666666667, 38.7116666666667], "type": "Point"}, "properties": {}}, "geo_point_2d": {"lon": -9.18666666666667, "lat": 38.7116666666667}},{"name": "Sternberg State Astronomical Institute Moscow", "instruments": null, "altitude": 195, "type": "Modern Astronomical Observatory", "description": "Modern Astronomical Observatory [195 meters AMSL]", "geometry": {"type": "Feature", "geometry": {"coordinates": [37.545, 55.7], "type": "Point"}, "properties": {}}, "geo_point_2d": {"lon": 37.545, "lat": 55.7}},{"name": "Boyden Observatory Mazelspoort", "instruments": null, "altitude": 1387, "type": "Modern Astronomical Observatory", "description": "Modern Astronomical Observatory [1387 meters AMSL]", "geometry": {"type": "Feature", "geometry": {"coordinates": [26.405, -29.0383333333333], "type": "Point"}, "properties": {}}, "geo_point_2d": {"lon": 26.405, "lat": -29.0383333333333}},{"name": "Stockholm Observatory Saltsj\u00f6baden", "instruments": null, "altitude": 60, "type": "Modern Astronomical Observatory", "description": "Modern Astronomical Observatory [60 meters AMSL]", "geometry": {"type": "Feature", "geometry": {"coordinates": [18.3083333333333, 59.2716666666667], "type": "Point"}, "properties": {}}, "geo_point_2d": {"lon": 18.3083333333333, "lat": 59.2716666666667}},{"name": "High Alpine Research Observatory M\u00fcrren/Jungfraujoch", "instruments": null, "altitude": 3576, "type": "Modern Astronomical Observatory", "description": "Modern Astronomical Observatory [3576 meters AMSL]", "geometry": {"type": "Feature", "geometry": {"coordinates": [7.985, 46.548333333333304], "type": "Point"}, "properties": {}}, "geo_point_2d": {"lon": 7.985, "lat": 46.548333333333304}},{"name": "Godlee Observatory Manchester, England", "instruments": null, "altitude": 77, "type": "Modern Astronomical Observatory", "description": "Modern Astronomical Observatory [77 meters AMSL]", "geometry": {"type": "Feature", "geometry": {"coordinates": [-2.23333333333333, 53.4766666666667], "type": "Point"}, "properties": {}}, "geo_point_2d": {"lon": -2.23333333333333, "lat": 53.4766666666667}},{"name": "Mount Wilson Observatory R Pasadena/Mt. Wilson", "instruments": "Radio", "altitude": 1742, "type": "Modern Astronomical Observatory", "description": "Modern Astronomical Observatory [1742 meters AMSL]", "geometry": {"type": "Feature", "geometry": {"coordinates": [-118.06, 34.2166666666667], "type": "Point"}, "properties": {}}, "geo_point_2d": {"lon": -118.06, "lat": 34.2166666666667}},{"name": "Van Vleck Observatory Middletown", "instruments": null, "altitude": 65, "type": "Modern Astronomical Observatory", "description": "Modern Astronomical Observatory [65 meters AMSL]", "geometry": {"type": "Feature", "geometry": {"coordinates": [-72.66, 41.555], "type": "Point"}, "properties": {}}, "geo_point_2d": {"lon": -72.66, "lat": 41.555}},{"name": "Haystack Observatory R Westford", "instruments": "Radio", "altitude": 146, "type": "Modern Astronomical Observatory", "description": "Modern Astronomical Observatory [146 meters AMSL]", "geometry": {"type": "Feature", "geometry": {"coordinates": [-71.4883333333333, 42.6233333333333], "type": "Point"}, "properties": {}}, "geo_point_2d": {"lon": -71.4883333333333, "lat": 42.6233333333333}},{"name": "C.E. Kenneth Mees Observatory Bristol Springs", "instruments": null, "altitude": 701, "type": "Modern Astronomical Observatory", "description": "Modern Astronomical Observatory [701 meters AMSL]", "geometry": {"type": "Feature", "geometry": {"coordinates": [-77.4083333333333, 42.7], "type": "Point"}, "properties": {}}, "geo_point_2d": {"lon": -77.4083333333333, "lat": 42.7}},{"name": "Dark Sky Observatory Boone", "instruments": null, "altitude": 926, "type": "Modern Astronomical Observatory", "description": "Modern Astronomical Observatory [926 meters AMSL]", "geometry": {"type": "Feature", "geometry": {"coordinates": [-81.4116666666667, 36.2516666666667], "type": "Point"}, "properties": {}}, "geo_point_2d": {"lon": -81.4116666666667, "lat": 36.2516666666667}},{"name": "Strawbridge Observatory R Haverford", "instruments": "Radio", "altitude": 116, "type": "Modern Astronomical Observatory", "description": "Modern Astronomical Observatory [116 meters AMSL]", "geometry": {"type": "Feature", "geometry": {"coordinates": [-75.3033333333333, 40.0116666666667], "type": "Point"}, "properties": {}}, "geo_point_2d": {"lon": -75.3033333333333, "lat": 40.0116666666667}},{"name": "India, New Delhi Yantra Mandir / Temple of Instruments", "instruments": null, "altitude": null, "type": "Ancient Astronomical Observatory", "description": "Ancient Astronomical Observatory", "geometry": {"type": "Feature", "geometry": {"coordinates": [77.2180555555556, 28.6263888888889], "type": "Point"}, "properties": {}}, "geo_point_2d": {"lon": 77.2180555555556, "lat": 28.6263888888889}},{"name": "Iran, Maragheh", "instruments": null, "altitude": null, "type": "Ancient Astronomical Observatory", "description": "Ancient Astronomical Observatory", "geometry": {"type": "Feature", "geometry": {"coordinates": [46.2, 37.4], "type": "Point"}, "properties": {}}, "geo_point_2d": {"lon": 46.2, "lat": 37.4}},{"name": "Macedonia, Kokino", "instruments": null, "altitude": null, "type": "Ancient Astronomical Observatory", "description": "Ancient Astronomical Observatory", "geometry": {"type": "Feature", "geometry": {"coordinates": [21.85, 42.26], "type": "Point"}, "properties": {}}, "geo_point_2d": {"lon": 21.85, "lat": 42.26}},{"name": "Beijing Observatory Sta. I Xinglong", "instruments": "Infrared", "altitude": 870, "type": "Modern Astronomical Observatory", "description": "Modern Astronomical Observatory [870 meters AMSL]", "geometry": {"type": "Feature", "geometry": {"coordinates": [117.575, 40.395], "type": "Point"}, "properties": {}}, "geo_point_2d": {"lon": 117.575, "lat": 40.395}},{"name": "Uttar Pradesh State Observatory Naini Tal/Manora Peak", "instruments": null, "altitude": 1927, "type": "Modern Astronomical Observatory", "description": "Modern Astronomical Observatory [1927 meters AMSL]", "geometry": {"type": "Feature", "geometry": {"coordinates": [79.4566666666667, 29.3616666666667], "type": "Point"}, "properties": {}}, "geo_point_2d": {"lon": 79.4566666666667, "lat": 29.3616666666667}},{"name": "Simosato Hydrographic Observatory R L Simosato", "instruments": "Laser Radio", "altitude": 63, "type": "Modern Astronomical Observatory", "description": "Modern Astronomical Observatory [63 meters AMSL]", "geometry": {"type": "Feature", "geometry": {"coordinates": [135.94, 33.575], "type": "Point"}, "properties": {}}, "geo_point_2d": {"lon": 135.94, "lat": 33.575}},{"name": "Super-Kamiokande N Observatory", "instruments": null, "altitude": -2400, "type": "Modern Astronomical Observatory", "description": "Modern Astronomical Observatory [-2400 meters AMSL]", "geometry": {"type": "Feature", "geometry": {"coordinates": [137.31, 36.43], "type": "Point"}, "properties": {}}, "geo_point_2d": {"lon": 137.31, "lat": 36.43}},{"name": "Kvistaberg Observatory Bro", "instruments": null, "altitude": 33, "type": "Modern Astronomical Observatory", "description": "Modern Astronomical Observatory [33 meters AMSL]", "geometry": {"type": "Feature", "geometry": {"coordinates": [17.6066666666667, 59.5016666666667], "type": "Point"}, "properties": {}}, "geo_point_2d": {"lon": 17.6066666666667, "lat": 59.5016666666667}},{"name": "Leuschner Observatory Lafayette", "instruments": null, "altitude": 304, "type": "Modern Astronomical Observatory", "description": "Modern Astronomical Observatory [304 meters AMSL]", "geometry": {"type": "Feature", "geometry": {"coordinates": [-122.156666666667, 37.9183333333333], "type": "Point"}, "properties": {}}, "geo_point_2d": {"lon": -122.156666666667, "lat": 37.9183333333333}},{"name": "Mount Laguna Observatory L Mount Laguna", "instruments": "Laser", "altitude": 1859, "type": "Modern Astronomical Observatory", "description": "Modern Astronomical Observatory [1859 meters AMSL]", "geometry": {"type": "Feature", "geometry": {"coordinates": [-116.426666666667, 32.84], "type": "Point"}, "properties": {}}, "geo_point_2d": {"lon": -116.426666666667, "lat": 32.84}},{"name": "John J. McCarthy Observatory New Milford", "instruments": null, "altitude": 79, "type": "Modern Astronomical Observatory", "description": "Modern Astronomical Observatory [79 meters AMSL]", "geometry": {"type": "Feature", "geometry": {"coordinates": [-73.4266666666667, 41.5266666666667], "type": "Point"}, "properties": {}}, "geo_point_2d": {"lon": -73.4266666666667, "lat": 41.5266666666667}},{"name": "Egypt, Abu Simbel", "instruments": null, "altitude": null, "type": "Ancient Astronomical Observatory", "description": "Ancient Astronomical Observatory", "geometry": {"type": "Feature", "geometry": {"coordinates": [31.6255555555556, 22.3369444444444], "type": "Point"}, "properties": {}}, "geo_point_2d": {"lon": 31.6255555555556, "lat": 22.3369444444444}},{"name": "Byurakan Astrophysical Observatory R Yerevan/Mt. Aragatz", "instruments": "Radio", "altitude": 1500, "type": "Modern Astronomical Observatory", "description": "Modern Astronomical Observatory [1500 meters AMSL]", "geometry": {"type": "Feature", "geometry": {"coordinates": [44.2916666666667, 40.335], "type": "Point"}, "properties": {}}, "geo_point_2d": {"lon": 44.2916666666667, "lat": 40.335}},{"name": "Tuorla Observatory Piikki\u00f6", "instruments": null, "altitude": 40, "type": "Modern Astronomical Observatory", "description": "Modern Astronomical Observatory [40 meters AMSL]", "geometry": {"type": "Feature", "geometry": {"coordinates": [22.4466666666667, 60.4166666666667], "type": "Point"}, "properties": {}}, "geo_point_2d": {"lon": 22.4466666666667, "lat": 60.4166666666667}},{"name": "T\u00fcbingen University Astronomical Observatory T\u00fcbingen", "instruments": null, "altitude": 470, "type": "Modern Astronomical Observatory", "description": "Modern Astronomical Observatory [470 meters AMSL]", "geometry": {"type": "Feature", "geometry": {"coordinates": [9.05833333333333, 48.5383333333333], "type": "Point"}, "properties": {}}, "geo_point_2d": {"lon": 9.05833333333333, "lat": 48.5383333333333}},{"name": "Wendelstein Solar Observatory Brannenburg", "instruments": null, "altitude": 1838, "type": "Modern Astronomical Observatory", "description": "Modern Astronomical Observatory [1838 meters AMSL]", "geometry": {"type": "Feature", "geometry": {"coordinates": [12.0133333333333, 47.7083333333333], "type": "Point"}, "properties": {}}, "geo_point_2d": {"lon": 12.0133333333333, "lat": 47.7083333333333}},{"name": "University of Thessalon\u00edki Observatory Thessalon\u00edki", "instruments": null, "altitude": 28, "type": "Modern Astronomical Observatory", "description": "Modern Astronomical Observatory [28 meters AMSL]", "geometry": {"type": "Feature", "geometry": {"coordinates": [22.9583333333333, 40.6166666666667], "type": "Point"}, "properties": {}}, "geo_point_2d": {"lon": 22.9583333333333, "lat": 40.6166666666667}},{"name": "Chaonis Observatory Chions", "instruments": null, "altitude": 15, "type": "Modern Astronomical Observatory", "description": "Modern Astronomical Observatory [15 meters AMSL]", "geometry": {"type": "Feature", "geometry": {"coordinates": [12.7116666666667, 45.8433333333333], "type": "Point"}, "properties": {}}, "geo_point_2d": {"lon": 12.7116666666667, "lat": 45.8433333333333}},{"name": "Rome Observatory Rome/Monte Mario", "instruments": null, "altitude": 152, "type": "Modern Astronomical Observatory", "description": "Modern Astronomical Observatory [152 meters AMSL]", "geometry": {"type": "Feature", "geometry": {"coordinates": [12.4516666666667, 41.9216666666667], "type": "Point"}, "properties": {}}, "geo_point_2d": {"lon": 12.4516666666667, "lat": 41.9216666666667}},{"name": "Nobeyama Solar Radio Observatory R Nobeyama", "instruments": "Radio", "altitude": 1350, "type": "Modern Astronomical Observatory", "description": "Modern Astronomical Observatory [1350 meters AMSL]", "geometry": {"type": "Feature", "geometry": {"coordinates": [138.48, 35.9383333333333], "type": "Point"}, "properties": {}}, "geo_point_2d": {"lon": 138.48, "lat": 35.9383333333333}},{"name": "Bohyunsan Optical Astronomical Observatory Youngchun/Mt. Bohyun", "instruments": null, "altitude": 1127, "type": "Modern Astronomical Observatory", "description": "Modern Astronomical Observatory [1127 meters AMSL]", "geometry": {"type": "Feature", "geometry": {"coordinates": [128.976666666667, 36.1666666666667], "type": "Point"}, "properties": {}}, "geo_point_2d": {"lon": 128.976666666667, "lat": 36.1666666666667}},{"name": "National Astronomical Observatory R Tonantzintla", "instruments": "Radio", "altitude": 2150, "type": "Modern Astronomical Observatory", "description": "Modern Astronomical Observatory [2150 meters AMSL]", "geometry": {"type": "Feature", "geometry": {"coordinates": [-98.3133333333333, 19.0333333333333], "type": "Point"}, "properties": {}}, "geo_point_2d": {"lon": -98.3133333333333, "lat": 19.0333333333333}},{"name": "Deep Space Sta. R Cebreros", "instruments": "Radio", "altitude": 789, "type": "Modern Astronomical Observatory", "description": "Modern Astronomical Observatory [789 meters AMSL]", "geometry": {"type": "Feature", "geometry": {"coordinates": [-4.36666666666667, 40.455], "type": "Point"}, "properties": {}}, "geo_point_2d": {"lon": -4.36666666666667, "lat": 40.455}},{"name": "Ramon Maria Aller Observatory Santiago de Compostela", "instruments": null, "altitude": 240, "type": "Modern Astronomical Observatory", "description": "Modern Astronomical Observatory [240 meters AMSL]", "geometry": {"type": "Feature", "geometry": {"coordinates": [-8.56, 42.875], "type": "Point"}, "properties": {}}, "geo_point_2d": {"lon": -8.56, "lat": 42.875}},{"name": "Taipei Observatory Taipei", "instruments": null, "altitude": 31, "type": "Modern Astronomical Observatory", "description": "Modern Astronomical Observatory [31 meters AMSL]", "geometry": {"type": "Feature", "geometry": {"coordinates": [121.526666666667, 25.0783333333333], "type": "Point"}, "properties": {}}, "geo_point_2d": {"lon": 121.526666666667, "lat": 25.0783333333333}},{"name": "Chilbolton Observatory R Chilbolton, England", "instruments": "Radio", "altitude": 92, "type": "Modern Astronomical Observatory", "description": "Modern Astronomical Observatory [92 meters AMSL]", "geometry": {"type": "Feature", "geometry": {"coordinates": [-1.43666666666667, 51.145], "type": "Point"}, "properties": {}}, "geo_point_2d": {"lon": -1.43666666666667, "lat": 51.145}},{"name": "Chamberlin Observatory Denver", "instruments": null, "altitude": 1644, "type": "Modern Astronomical Observatory", "description": "Modern Astronomical Observatory [1644 meters AMSL]", "geometry": {"type": "Feature", "geometry": {"coordinates": [-104.953333333333, 39.6766666666667], "type": "Point"}, "properties": {}}, "geo_point_2d": {"lon": -104.953333333333, "lat": 39.6766666666667}},{"name": "Mauna Kea Observatory I Hilo/Mauna Kea, Hawaii", "instruments": "Infrared", "altitude": 4214, "type": "Modern Astronomical Observatory", "description": "Modern Astronomical Observatory [4214 meters AMSL]", "geometry": {"type": "Feature", "geometry": {"coordinates": [-155.47, 19.8233333333333], "type": "Point"}, "properties": {}}, "geo_point_2d": {"lon": -155.47, "lat": 19.8233333333333}},{"name": "W.M. Keck Observatory Hilo/Mauna Kea, Hawaii", "instruments": null, "altitude": 4160, "type": "Modern Astronomical Observatory", "description": "Modern Astronomical Observatory [4160 meters AMSL]", "geometry": {"type": "Feature", "geometry": {"coordinates": [-155.475, 19.8266666666667], "type": "Point"}, "properties": {}}, "geo_point_2d": {"lon": -155.475, "lat": 19.8266666666667}},{"name": "Hopkins Observatory R Williamstown", "instruments": "Radio", "altitude": 215, "type": "Modern Astronomical Observatory", "description": "Modern Astronomical Observatory [215 meters AMSL]", "geometry": {"type": "Feature", "geometry": {"coordinates": [-73.2016666666667, 42.7116666666667], "type": "Point"}, "properties": {}}, "geo_point_2d": {"lon": -73.2016666666667, "lat": 42.7116666666667}},{"name": "Oak Ridge Observatory R Harvard", "instruments": "Radio", "altitude": 185, "type": "Modern Astronomical Observatory", "description": "Modern Astronomical Observatory [185 meters AMSL]", "geometry": {"type": "Feature", "geometry": {"coordinates": [-71.5583333333333, 42.505], "type": "Point"}, "properties": {}}, "geo_point_2d": {"lon": -71.5583333333333, "lat": 42.505}},{"name": "Germany, Goseck", "instruments": null, "altitude": null, "type": "Ancient Astronomical Observatory", "description": "Ancient Astronomical Observatory", "geometry": {"type": "Feature", "geometry": {"coordinates": [11.86458, 51.19823], "type": "Point"}, "properties": {}}, "geo_point_2d": {"lon": 11.86458, "lat": 51.19823}},{"name": "Mexico, Teotihuacan", "instruments": null, "altitude": null, "type": "Ancient Astronomical Observatory", "description": "Ancient Astronomical Observatory", "geometry": {"type": "Feature", "geometry": {"coordinates": [-98.843973, 19.699441], "type": "Point"}, "properties": {}}, "geo_point_2d": {"lon": -98.843973, "lat": 19.699441}},{"name": "Argentine Radio Astronomical Institute R Villa Elisa", "instruments": "Radio", "altitude": 11, "type": "Modern Astronomical Observatory", "description": "Modern Astronomical Observatory [11 meters AMSL]", "geometry": {"type": "Feature", "geometry": {"coordinates": [-58.1366666666667, -34.8683333333333], "type": "Point"}, "properties": {}}, "geo_point_2d": {"lon": -58.1366666666667, "lat": -34.8683333333333}},{"name": "El Leoncito Astronomical Complex San Juan/El Leoncito", "instruments": null, "altitude": 2552, "type": "Modern Astronomical Observatory", "description": "Modern Astronomical Observatory [2552 meters AMSL]", "geometry": {"type": "Feature", "geometry": {"coordinates": [-69.3, -31.8], "type": "Point"}, "properties": {}}, "geo_point_2d": {"lon": -69.3, "lat": -31.8}},{"name": "Perth Observatory Bickley, Western Australia", "instruments": null, "altitude": 391, "type": "Modern Astronomical Observatory", "description": "Modern Astronomical Observatory [391 meters AMSL]", "geometry": {"type": "Feature", "geometry": {"coordinates": [116.135, -32.0083333333333], "type": "Point"}, "properties": {}}, "geo_point_2d": {"lon": 116.135, "lat": -32.0083333333333}},{"name": "Kanzelh\u00f6he Solar Observatory Klagenfurt/Kanzelh\u00f6he", "instruments": null, "altitude": 1526, "type": "Modern Astronomical Observatory", "description": "Modern Astronomical Observatory [1526 meters AMSL]", "geometry": {"type": "Feature", "geometry": {"coordinates": [13.9066666666667, 46.6783333333333], "type": "Point"}, "properties": {}}, "geo_point_2d": {"lon": 13.9066666666667, "lat": 46.6783333333333}},{"name": "Piedade Observatory Belo Horizonte", "instruments": null, "altitude": 1746, "type": "Modern Astronomical Observatory", "description": "Modern Astronomical Observatory [1746 meters AMSL]", "geometry": {"type": "Feature", "geometry": {"coordinates": [-43.5116666666667, -19.8216666666667], "type": "Point"}, "properties": {}}, "geo_point_2d": {"lon": -43.5116666666667, "lat": -19.8216666666667}},{"name": "Millimeter Radio Astronomical Institute R Gap/Plateau de Bure", "instruments": "Radio", "altitude": 2552, "type": "Modern Astronomical Observatory", "description": "Modern Astronomical Observatory [2552 meters AMSL]", "geometry": {"type": "Feature", "geometry": {"coordinates": [5.90666666666667, 44.6333333333333], "type": "Point"}, "properties": {}}, "geo_point_2d": {"lon": 5.90666666666667, "lat": 44.6333333333333}},{"name": "Friedrich Schiller University Observatory Jena", "instruments": null, "altitude": 356, "type": "Modern Astronomical Observatory", "description": "Modern Astronomical Observatory [356 meters AMSL]", "geometry": {"type": "Feature", "geometry": {"coordinates": [11.4866666666667, 50.93], "type": "Point"}, "properties": {}}, "geo_point_2d": {"lon": 11.4866666666667, "lat": 50.93}},{"name": "Heliophysical Observatory Sta. Gyula", "instruments": null, "altitude": 135, "type": "Modern Astronomical Observatory", "description": "Modern Astronomical Observatory [135 meters AMSL]", "geometry": {"type": "Feature", "geometry": {"coordinates": [21.27, 46.6533333333333], "type": "Point"}, "properties": {}}, "geo_point_2d": {"lon": 21.27, "lat": 46.6533333333333}},{"name": "Japal-Rangapur Observatory R Japal", "instruments": "Radio", "altitude": 695, "type": "Modern Astronomical Observatory", "description": "Modern Astronomical Observatory [695 meters AMSL]", "geometry": {"type": "Feature", "geometry": {"coordinates": [78.7283333333333, 17.0983333333333], "type": "Point"}, "properties": {}}, "geo_point_2d": {"lon": 78.7283333333333, "lat": 17.0983333333333}},{"name": "Nizamiah Observatory Hyderabad", "instruments": null, "altitude": 554, "type": "Modern Astronomical Observatory", "description": "Modern Astronomical Observatory [554 meters AMSL]", "geometry": {"type": "Feature", "geometry": {"coordinates": [78.4533333333333, 17.4316666666667], "type": "Point"}, "properties": {}}, "geo_point_2d": {"lon": 78.4533333333333, "lat": 17.4316666666667}},{"name": "Kapteyn Observatory Roden", "instruments": null, "altitude": 12, "type": "Modern Astronomical Observatory", "description": "Modern Astronomical Observatory [12 meters AMSL]", "geometry": {"type": "Feature", "geometry": {"coordinates": [6.44333333333333, 53.1283333333333], "type": "Point"}, "properties": {}}, "geo_point_2d": {"lon": 6.44333333333333, "lat": 53.1283333333333}},{"name": "Astronomical Latitude Observatory L Borowiec", "instruments": "Laser", "altitude": 80, "type": "Modern Astronomical Observatory", "description": "Modern Astronomical Observatory [80 meters AMSL]", "geometry": {"type": "Feature", "geometry": {"coordinates": [17.075, 52.2766666666667], "type": "Point"}, "properties": {}}, "geo_point_2d": {"lon": 17.075, "lat": 52.2766666666667}},{"name": "Kitt Peak National Observatory Tucson/Kitt Peak", "instruments": null, "altitude": 2120, "type": "Modern Astronomical Observatory", "description": "Modern Astronomical Observatory [2120 meters AMSL]", "geometry": {"type": "Feature", "geometry": {"coordinates": [-111.6, 31.9633333333333], "type": "Point"}, "properties": {}}, "geo_point_2d": {"lon": -111.6, "lat": 31.9633333333333}},{"name": "University of Iowa Observatory Riverside", "instruments": null, "altitude": 221, "type": "Modern Astronomical Observatory", "description": "Modern Astronomical Observatory [221 meters AMSL]", "geometry": {"type": "Feature", "geometry": {"coordinates": [-91.56, 41.515], "type": "Point"}, "properties": {}}, "geo_point_2d": {"lon": -91.56, "lat": 41.515}},{"name": "University of Mich. Radio Astronomical Observatory R Dexter", "instruments": "Radio", "altitude": 345, "type": "Modern Astronomical Observatory", "description": "Modern Astronomical Observatory [345 meters AMSL]", "geometry": {"type": "Feature", "geometry": {"coordinates": [-83.9366666666667, 42.3983333333333], "type": "Point"}, "properties": {}}, "geo_point_2d": {"lon": -83.9366666666667, "lat": 42.3983333333333}},{"name": "Behlen Observatory Mead", "instruments": null, "altitude": 362, "type": "Modern Astronomical Observatory", "description": "Modern Astronomical Observatory [362 meters AMSL]", "geometry": {"type": "Feature", "geometry": {"coordinates": [-96.4466666666667, 41.1716666666667], "type": "Point"}, "properties": {}}, "geo_point_2d": {"lon": -96.4466666666667, "lat": 41.1716666666667}},{"name": "MacLean Observatory Incline Village", "instruments": null, "altitude": 2546, "type": "Modern Astronomical Observatory", "description": "Modern Astronomical Observatory [2546 meters AMSL]", "geometry": {"type": "Feature", "geometry": {"coordinates": [-119.928333333333, 39.295], "type": "Point"}, "properties": {}}, "geo_point_2d": {"lon": -119.928333333333, "lat": 39.295}},{"name": "Melton Memorial Observatory Columbia", "instruments": null, "altitude": 98, "type": "Modern Astronomical Observatory", "description": "Modern Astronomical Observatory [98 meters AMSL]", "geometry": {"type": "Feature", "geometry": {"coordinates": [-81.0266666666667, 33.9966666666667], "type": "Point"}, "properties": {}}, "geo_point_2d": {"lon": -81.0266666666667, "lat": 33.9966666666667}},{"name": "Uluk-Bek Latitude Sta. Kitab", "instruments": null, "altitude": 658, "type": "Modern Astronomical Observatory", "description": "Modern Astronomical Observatory [658 meters AMSL]", "geometry": {"type": "Feature", "geometry": {"coordinates": [66.8816666666667, 39.1333333333333], "type": "Point"}, "properties": {}}, "geo_point_2d": {"lon": 66.8816666666667, "lat": 39.1333333333333}},{"name": "Anglo-Australian Observatory I Coonabarabran/Siding Spring,  N.S.W.", "instruments": "Infrared", "altitude": 1164, "type": "Modern Astronomical Observatory", "description": "Modern Astronomical Observatory [1164 meters AMSL]", "geometry": {"type": "Feature", "geometry": {"coordinates": [149.066666666667, -31.2766666666667], "type": "Point"}, "properties": {}}, "geo_point_2d": {"lon": 149.066666666667, "lat": -31.2766666666667}},{"name": "Algonquin Radio Observatory R Lake Traverse, Ontario", "instruments": "Radio", "altitude": 260, "type": "Modern Astronomical Observatory", "description": "Modern Astronomical Observatory [260 meters AMSL]", "geometry": {"type": "Feature", "geometry": {"coordinates": [-78.0733333333333, 45.955], "type": "Point"}, "properties": {}}, "geo_point_2d": {"lon": -78.0733333333333, "lat": 45.955}},{"name": "David Dunlap Observatory Richmond Hill, Ontario", "instruments": null, "altitude": 244, "type": "Modern Astronomical Observatory", "description": "Modern Astronomical Observatory [244 meters AMSL]", "geometry": {"type": "Feature", "geometry": {"coordinates": [-79.4216666666667, 43.8633333333333], "type": "Point"}, "properties": {}}, "geo_point_2d": {"lon": -79.4216666666667, "lat": 43.8633333333333}},{"name": "Wuchang Time Observatory L Wuhan", "instruments": "Laser", "altitude": 28, "type": "Modern Astronomical Observatory", "description": "Modern Astronomical Observatory [28 meters AMSL]", "geometry": {"type": "Feature", "geometry": {"coordinates": [114.345, 30.5416666666667], "type": "Point"}, "properties": {}}, "geo_point_2d": {"lon": 114.345, "lat": 30.5416666666667}},{"name": "C\u00f4te d'Azur Observatory Calern Sta. I L St. Vallier-de-Thiey", "instruments": "Infrared Laser", "altitude": 1270, "type": "Modern Astronomical Observatory", "description": "Modern Astronomical Observatory [1270 meters AMSL]", "geometry": {"type": "Feature", "geometry": {"coordinates": [6.92666666666667, 43.7483333333333], "type": "Point"}, "properties": {}}, "geo_point_2d": {"lon": 6.92666666666667, "lat": 43.7483333333333}},{"name": "Florence and George Wise Observatory Mitzpe Ramon/Mt. Zin", "instruments": null, "altitude": 874, "type": "Modern Astronomical Observatory", "description": "Modern Astronomical Observatory [874 meters AMSL]", "geometry": {"type": "Feature", "geometry": {"coordinates": [34.7633333333333, 30.5966666666667], "type": "Point"}, "properties": {}}, "geo_point_2d": {"lon": 34.7633333333333, "lat": 30.5966666666667}},{"name": "Bologna University Observatory Loiano", "instruments": null, "altitude": 785, "type": "Modern Astronomical Observatory", "description": "Modern Astronomical Observatory [785 meters AMSL]", "geometry": {"type": "Feature", "geometry": {"coordinates": [11.3366666666667, 44.2583333333333], "type": "Point"}, "properties": {}}, "geo_point_2d": {"lon": 11.3366666666667, "lat": 44.2583333333333}},{"name": "International Latitude Observatory Carloforte", "instruments": null, "altitude": 22, "type": "Modern Astronomical Observatory", "description": "Modern Astronomical Observatory [22 meters AMSL]", "geometry": {"type": "Feature", "geometry": {"coordinates": [8.31166666666667, 39.1372222222222], "type": "Point"}, "properties": {}}, "geo_point_2d": {"lon": 8.31166666666667, "lat": 39.1372222222222}},{"name": "Sendai Astronomical Observatory Sendai", "instruments": null, "altitude": 45, "type": "Modern Astronomical Observatory", "description": "Modern Astronomical Observatory [45 meters AMSL]", "geometry": {"type": "Feature", "geometry": {"coordinates": [140.865, 38.2566666666667], "type": "Point"}, "properties": {}}, "geo_point_2d": {"lon": 140.865, "lat": 38.2566666666667}},{"name": "Mountain Observatory Alma-Ata", "instruments": null, "altitude": 1450, "type": "Modern Astronomical Observatory", "description": "Modern Astronomical Observatory [1450 meters AMSL]", "geometry": {"type": "Feature", "geometry": {"coordinates": [76.9566666666667, 43.1883333333333], "type": "Point"}, "properties": {}}, "geo_point_2d": {"lon": 76.9566666666667, "lat": 43.1883333333333}},{"name": "Special Astrophysical Observatory R  Zelenchukskaya/Pasterkhov Mtn.", "instruments": "Radio", "altitude": 2100, "type": "Modern Astronomical Observatory", "description": "Modern Astronomical Observatory [2100 meters AMSL]", "geometry": {"type": "Feature", "geometry": {"coordinates": [41.4416666666667, 43.6533333333333], "type": "Point"}, "properties": {}}, "geo_point_2d": {"lon": 41.4416666666667, "lat": 43.6533333333333}},{"name": "St. Petersburg University Observatory St. Petersburg", "instruments": null, "altitude": 3, "type": "Modern Astronomical Observatory", "description": "Modern Astronomical Observatory [3 meters AMSL]", "geometry": {"type": "Feature", "geometry": {"coordinates": [30.295, 59.9416666666667], "type": "Point"}, "properties": {}}, "geo_point_2d": {"lon": 30.295, "lat": 59.9416666666667}},{"name": "National Astronomical Observatory Madrid", "instruments": null, "altitude": 670, "type": "Modern Astronomical Observatory", "description": "Modern Astronomical Observatory [670 meters AMSL]", "geometry": {"type": "Feature", "geometry": {"coordinates": [-3.685, 40.41], "type": "Point"}, "properties": {}}, "geo_point_2d": {"lon": -3.685, "lat": 40.41}},{"name": "Basle University Astronomical Institute Binningen", "instruments": null, "altitude": 318, "type": "Modern Astronomical Observatory", "description": "Modern Astronomical Observatory [318 meters AMSL]", "geometry": {"type": "Feature", "geometry": {"coordinates": [7.58333333333333, 47.5416666666667], "type": "Point"}, "properties": {}}, "geo_point_2d": {"lon": 7.58333333333333, "lat": 47.5416666666667}},{"name": "Kharkov University Astronomical Observatory Kharkov", "instruments": null, "altitude": 138, "type": "Modern Astronomical Observatory", "description": "Modern Astronomical Observatory [138 meters AMSL]", "geometry": {"type": "Feature", "geometry": {"coordinates": [36.2316666666667, 50.0033333333333], "type": "Point"}, "properties": {}}, "geo_point_2d": {"lon": 36.2316666666667, "lat": 50.0033333333333}},{"name": "City Observatory Edinburgh, Scotland", "instruments": null, "altitude": 107, "type": "Modern Astronomical Observatory", "description": "Modern Astronomical Observatory [107 meters AMSL]", "geometry": {"type": "Feature", "geometry": {"coordinates": [-3.18, 55.9566666666667], "type": "Point"}, "properties": {}}, "geo_point_2d": {"lon": -3.18, "lat": 55.9566666666667}},{"name": "Sommers-Bausch Observatory Boulder", "instruments": null, "altitude": 1653, "type": "Modern Astronomical Observatory", "description": "Modern Astronomical Observatory [1653 meters AMSL]", "geometry": {"type": "Feature", "geometry": {"coordinates": [-105.263333333333, 40.0033333333333], "type": "Point"}, "properties": {}}, "geo_point_2d": {"lon": -105.263333333333, "lat": 40.0033333333333}},{"name": "Goethe Link Observatory Brooklyn", "instruments": null, "altitude": 300, "type": "Modern Astronomical Observatory", "description": "Modern Astronomical Observatory [300 meters AMSL]", "geometry": {"type": "Feature", "geometry": {"coordinates": [-86.395, 39.55], "type": "Point"}, "properties": {}}, "geo_point_2d": {"lon": -86.395, "lat": 39.55}},{"name": "North Liberty Radio Observatory R North Liberty", "instruments": "Radio", "altitude": 241, "type": "Modern Astronomical Observatory", "description": "Modern Astronomical Observatory [241 meters AMSL]", "geometry": {"type": "Feature", "geometry": {"coordinates": [-91.575, 41.7716666666667], "type": "Point"}, "properties": {}}, "geo_point_2d": {"lon": -91.575, "lat": 41.7716666666667}},{"name": "Capilla Peak Observatory Albuquerque/Capilla Peak", "instruments": null, "altitude": 2842, "type": "Modern Astronomical Observatory", "description": "Modern Astronomical Observatory [2842 meters AMSL]", "geometry": {"type": "Feature", "geometry": {"coordinates": [-106.405, 34.6966666666667], "type": "Point"}, "properties": {}}, "geo_point_2d": {"lon": -106.405, "lat": 34.6966666666667}},{"name": "United Kingdom, Scotland, Callanish", "instruments": null, "altitude": null, "type": "Ancient Astronomical Observatory", "description": "Ancient Astronomical Observatory", "geometry": {"type": "Feature", "geometry": {"coordinates": [-6.745088, 58.19742], "type": "Point"}, "properties": {}}, "geo_point_2d": {"lon": -6.745088, "lat": 58.19742}},{"name": "Naval Observatory Buenos Aires", "instruments": null, "altitude": 6, "type": "Modern Astronomical Observatory", "description": "Modern Astronomical Observatory [6 meters AMSL]", "geometry": {"type": "Feature", "geometry": {"coordinates": [-58.355, -34.6216666666667], "type": "Point"}, "properties": {}}, "geo_point_2d": {"lon": -58.355, "lat": -34.6216666666667}},{"name": "Molonglo Radio Observatory R Hoskinstown, New South Wales", "instruments": "Radio", "altitude": 732, "type": "Modern Astronomical Observatory", "description": "Modern Astronomical Observatory [732 meters AMSL]", "geometry": {"type": "Feature", "geometry": {"coordinates": [149.423333333333, -35.3716666666667], "type": "Point"}, "properties": {}}, "geo_point_2d": {"lon": 149.423333333333, "lat": -35.3716666666667}},{"name": "Siding Spring Observatory Coonabarabran/Siding Spring,  N.S.W.", "instruments": null, "altitude": 1149, "type": "Modern Astronomical Observatory", "description": "Modern Astronomical Observatory [1149 meters AMSL]", "geometry": {"type": "Feature", "geometry": {"coordinates": [149.061666666667, -31.2733333333333], "type": "Point"}, "properties": {}}, "geo_point_2d": {"lon": 149.061666666667, "lat": -31.2733333333333}},{"name": "Ottawa River Solar Observatory Ottawa, Ontario", "instruments": null, "altitude": 58, "type": "Modern Astronomical Observatory", "description": "Modern Astronomical Observatory [58 meters AMSL]", "geometry": {"type": "Feature", "geometry": {"coordinates": [-75.8933333333333, 45.3866666666667], "type": "Point"}, "properties": {}}, "geo_point_2d": {"lon": -75.8933333333333, "lat": 45.3866666666667}},{"name": "Hamburg Observatory Bergedorf", "instruments": null, "altitude": 45, "type": "Modern Astronomical Observatory", "description": "Modern Astronomical Observatory [45 meters AMSL]", "geometry": {"type": "Feature", "geometry": {"coordinates": [10.2416666666667, 53.4816666666667], "type": "Point"}, "properties": {}}, "geo_point_2d": {"lon": 10.2416666666667, "lat": 53.4816666666667}},{"name": "Konkoly Observatory Sta. Piszk\u00e9stet\u00f6", "instruments": null, "altitude": 958, "type": "Modern Astronomical Observatory", "description": "Modern Astronomical Observatory [958 meters AMSL]", "geometry": {"type": "Feature", "geometry": {"coordinates": [19.895, 47.9183333333333], "type": "Point"}, "properties": {}}, "geo_point_2d": {"lon": 19.895, "lat": 47.9183333333333}},{"name": "Indian Astronomical Observatory Hanle/Mt. Saraswati", "instruments": null, "altitude": 4467, "type": "Modern Astronomical Observatory", "description": "Modern Astronomical Observatory [4467 meters AMSL]", "geometry": {"type": "Feature", "geometry": {"coordinates": [78.965, 32.78], "type": "Point"}, "properties": {}}, "geo_point_2d": {"lon": 78.965, "lat": 32.78}},{"name": "Arcetri Astrophysical Observatory Arcetri", "instruments": null, "altitude": 184, "type": "Modern Astronomical Observatory", "description": "Modern Astronomical Observatory [184 meters AMSL]", "geometry": {"type": "Feature", "geometry": {"coordinates": [11.255, 43.7533333333333], "type": "Point"}, "properties": {}}, "geo_point_2d": {"lon": 11.255, "lat": 43.7533333333333}},{"name": "Swanson Observatory and Angele Observatory/Monte Sano", "instruments": null, "altitude": null, "type": "Modern Astronomical Observatory", "description": "Modern Astronomical Observatory", "geometry": {"type": "Feature", "geometry": {"coordinates": [-86.51395, 34.74949], "type": "Point"}, "properties": {}}, "geo_point_2d": {"lon": -86.51395, "lat": 34.74949}},{"name": "Meyer-Womble Observatory Georgetown/Mt. Evans", "instruments": null, "altitude": 4305, "type": "Modern Astronomical Observatory", "description": "Modern Astronomical Observatory [4305 meters AMSL]", "geometry": {"type": "Feature", "geometry": {"coordinates": [-105.64, 39.5866666666667], "type": "Point"}, "properties": {}}, "geo_point_2d": {"lon": -105.64, "lat": 39.5866666666667}},{"name": "Hard Labor Creek Observatory Rutledge", "instruments": null, "altitude": 223, "type": "Modern Astronomical Observatory", "description": "Modern Astronomical Observatory [223 meters AMSL]", "geometry": {"type": "Feature", "geometry": {"coordinates": [-83.5933333333333, 33.67], "type": "Point"}, "properties": {}}, "geo_point_2d": {"lon": -83.5933333333333, "lat": 33.67}},{"name": "Pie Town", "instruments": null, "altitude": null, "type": "Modern Astronomical Observatory", "description": "Modern Astronomical Observatory", "geometry": {"type": "Feature", "geometry": {"coordinates": [-108.119183, 34.301003], "type": "Point"}, "properties": {}}, "geo_point_2d": {"lon": -108.119183, "lat": 34.301003}},{"name": "Syracuse University Observatory Syracuse", "instruments": null, "altitude": 160, "type": "Modern Astronomical Observatory", "description": "Modern Astronomical Observatory [160 meters AMSL]", "geometry": {"type": "Feature", "geometry": {"coordinates": [-76.1383333333333, 43.0366666666667], "type": "Point"}, "properties": {}}, "geo_point_2d": {"lon": -76.1383333333333, "lat": 43.0366666666667}},{"name": "Pisgah Astronomical Rsch. Institute -PARI- Rosman", "instruments": null, "altitude": 892, "type": "Modern Astronomical Observatory", "description": "Modern Astronomical Observatory [892 meters AMSL]", "geometry": {"type": "Feature", "geometry": {"coordinates": [-82.8716666666667, 35.2], "type": "Point"}, "properties": {}}, "geo_point_2d": {"lon": -82.8716666666667, "lat": 35.2}},{"name": "Dr. Carlos U. Cesco Sta. San Juan/El Leoncito", "instruments": null, "altitude": 2348, "type": "Modern Astronomical Observatory", "description": "Modern Astronomical Observatory [2348 meters AMSL]", "geometry": {"type": "Feature", "geometry": {"coordinates": [-69.33, -31.8016666666667], "type": "Point"}, "properties": {}}, "geo_point_2d": {"lon": -69.33, "lat": -31.8016666666667}},{"name": "Paranal Observatory Antofagasta/Cerro Paranal", "instruments": null, "altitude": 2635, "type": "Modern Astronomical Observatory", "description": "Modern Astronomical Observatory [2635 meters AMSL]", "geometry": {"type": "Feature", "geometry": {"coordinates": [-70.4033333333333, -24.625], "type": "Point"}, "properties": {}}, "geo_point_2d": {"lon": -70.4033333333333, "lat": -24.625}},{"name": "Beijing Observatory Sta. R L Shahe", "instruments": "Laser Radio", "altitude": 40, "type": "Modern Astronomical Observatory", "description": "Modern Astronomical Observatory [40 meters AMSL]", "geometry": {"type": "Feature", "geometry": {"coordinates": [116.328333333333, 40.1016666666667], "type": "Point"}, "properties": {}}, "geo_point_2d": {"lon": 116.328333333333, "lat": 40.1016666666667}},{"name": "Central Institute for Earth Physics Potsdam", "instruments": null, "altitude": 91, "type": "Modern Astronomical Observatory", "description": "Modern Astronomical Observatory [91 meters AMSL]", "geometry": {"type": "Feature", "geometry": {"coordinates": [13.0666666666667, 52.3816666666667], "type": "Point"}, "properties": {}}, "geo_point_2d": {"lon": 13.0666666666667, "lat": 52.3816666666667}},{"name": "Sonneberg Observatory Sonneberg", "instruments": null, "altitude": 640, "type": "Modern Astronomical Observatory", "description": "Modern Astronomical Observatory [640 meters AMSL]", "geometry": {"type": "Feature", "geometry": {"coordinates": [11.1916666666667, 50.3783333333333], "type": "Point"}, "properties": {}}, "geo_point_2d": {"lon": 11.1916666666667, "lat": 50.3783333333333}},{"name": "National Centre for Radio Aph. Khodad", "instruments": null, "altitude": 650, "type": "Modern Astronomical Observatory", "description": "Modern Astronomical Observatory [650 meters AMSL]", "geometry": {"type": "Feature", "geometry": {"coordinates": [74.05, 19.1], "type": "Point"}, "properties": {}}, "geo_point_2d": {"lon": 74.05, "lat": 19.1}},{"name": "Toyokawa Observatory R Toyokawa", "instruments": "Radio", "altitude": 18, "type": "Modern Astronomical Observatory", "description": "Modern Astronomical Observatory [18 meters AMSL]", "geometry": {"type": "Feature", "geometry": {"coordinates": [137.371666666667, 34.8366666666667], "type": "Point"}, "properties": {}}, "geo_point_2d": {"lon": 137.371666666667, "lat": 34.8366666666667}},{"name": "Korea Astronomical Observatory Taejeon", "instruments": null, "altitude": 120, "type": "Modern Astronomical Observatory", "description": "Modern Astronomical Observatory [120 meters AMSL]", "geometry": {"type": "Feature", "geometry": {"coordinates": [127.371666666667, 36.3983333333333], "type": "Point"}, "properties": {}}, "geo_point_2d": {"lon": 127.371666666667, "lat": 36.3983333333333}},{"name": "Sobaeksan Astronomical Observatory Danyang", "instruments": null, "altitude": 1390, "type": "Modern Astronomical Observatory", "description": "Modern Astronomical Observatory [1390 meters AMSL]", "geometry": {"type": "Feature", "geometry": {"coordinates": [128.456666666667, 36.9333333333333], "type": "Point"}, "properties": {}}, "geo_point_2d": {"lon": 128.456666666667, "lat": 36.9333333333333}},{"name": "Carter Observatory Wellington", "instruments": null, "altitude": 129, "type": "Modern Astronomical Observatory", "description": "Modern Astronomical Observatory [129 meters AMSL]", "geometry": {"type": "Feature", "geometry": {"coordinates": [174.766666666667, -41.2866666666667], "type": "Point"}, "properties": {}}, "geo_point_2d": {"lon": 174.766666666667, "lat": -41.2866666666667}},{"name": "Poznan University Astronomical Observatory L Poznan", "instruments": "Laser", "altitude": 85, "type": "Modern Astronomical Observatory", "description": "Modern Astronomical Observatory [85 meters AMSL]", "geometry": {"type": "Feature", "geometry": {"coordinates": [16.8783333333333, 52.3966666666667], "type": "Point"}, "properties": {}}, "geo_point_2d": {"lon": 16.8783333333333, "lat": 52.3966666666667}},{"name": "Tomsk University Observatory Tomsk", "instruments": null, "altitude": 130, "type": "Modern Astronomical Observatory", "description": "Modern Astronomical Observatory [130 meters AMSL]", "geometry": {"type": "Feature", "geometry": {"coordinates": [84.9466666666667, 56.4683333333333], "type": "Point"}, "properties": {}}, "geo_point_2d": {"lon": 84.9466666666667, "lat": 56.4683333333333}},{"name": "German Spanish Astronomical Center G\u00e9rgal/Calar Alto Mtn.", "instruments": null, "altitude": 2168, "type": "Modern Astronomical Observatory", "description": "Modern Astronomical Observatory [2168 meters AMSL]", "geometry": {"type": "Feature", "geometry": {"coordinates": [-2.5366666666666697, 37.23], "type": "Point"}, "properties": {}}, "geo_point_2d": {"lon": -2.5366666666666697, "lat": 37.23}},{"name": "University of Lausanne Observatory Chavannes-des-Bois", "instruments": null, "altitude": 465, "type": "Modern Astronomical Observatory", "description": "Modern Astronomical Observatory [465 meters AMSL]", "geometry": {"type": "Feature", "geometry": {"coordinates": [6.13666666666667, 46.3066666666667], "type": "Point"}, "properties": {}}, "geo_point_2d": {"lon": 6.13666666666667, "lat": 46.3066666666667}},{"name": "National Central University Observatory Chung-li", "instruments": null, "altitude": 152, "type": "Modern Astronomical Observatory", "description": "Modern Astronomical Observatory [152 meters AMSL]", "geometry": {"type": "Feature", "geometry": {"coordinates": [121.186666666667, 24.97], "type": "Point"}, "properties": {}}, "geo_point_2d": {"lon": 121.186666666667, "lat": 24.97}},{"name": "Royal Observatory Greenwich, England", "instruments": null, "altitude": null, "type": "Modern Astronomical Observatory", "description": "Modern Astronomical Observatory", "geometry": {"type": "Feature", "geometry": {"coordinates": [0.0, 51.4772222222222], "type": "Point"}, "properties": {}}, "geo_point_2d": {"lon": 0.0, "lat": 51.4772222222222}},{"name": "Steward Observatory Catalina Sta. Tucson/Mt. Bigelow", "instruments": null, "altitude": 2510, "type": "Modern Astronomical Observatory", "description": "Modern Astronomical Observatory [2510 meters AMSL]", "geometry": {"type": "Feature", "geometry": {"coordinates": [-110.731666666667, 32.4166666666667], "type": "Point"}, "properties": {}}, "geo_point_2d": {"lon": -110.731666666667, "lat": 32.4166666666667}},{"name": "MIRA Oliver Observing Sta. Monterey/Chews Ridge", "instruments": null, "altitude": 1525, "type": "Modern Astronomical Observatory", "description": "Modern Astronomical Observatory [1525 meters AMSL]", "geometry": {"type": "Feature", "geometry": {"coordinates": [-121.57, 36.305], "type": "Point"}, "properties": {}}, "geo_point_2d": {"lon": -121.57, "lat": 36.305}},{"name": "University of Florida Radio Observatory R Old Town", "instruments": "Radio", "altitude": 8, "type": "Modern Astronomical Observatory", "description": "Modern Astronomical Observatory [8 meters AMSL]", "geometry": {"type": "Feature", "geometry": {"coordinates": [-83.035, 29.5283333333333], "type": "Point"}, "properties": {}}, "geo_point_2d": {"lon": -83.035, "lat": 29.5283333333333}},{"name": "Erwin W. Fick Observatory Boone", "instruments": null, "altitude": 332, "type": "Modern Astronomical Observatory", "description": "Modern Astronomical Observatory [332 meters AMSL]", "geometry": {"type": "Feature", "geometry": {"coordinates": [-93.9416666666667, 42.005], "type": "Point"}, "properties": {}}, "geo_point_2d": {"lon": -93.9416666666667, "lat": 42.005}},{"name": "Rutherfurd Observatory New York", "instruments": null, "altitude": 25, "type": "Modern Astronomical Observatory", "description": "Modern Astronomical Observatory [25 meters AMSL]", "geometry": {"type": "Feature", "geometry": {"coordinates": [-73.9583333333333, 40.81], "type": "Point"}, "properties": {}}, "geo_point_2d": {"lon": -73.9583333333333, "lat": 40.81}},{"name": "Leander McCormick Observatory Sta. Charlottesville/Fan Mtn.", "instruments": null, "altitude": 566, "type": "Modern Astronomical Observatory", "description": "Modern Astronomical Observatory [566 meters AMSL]", "geometry": {"type": "Feature", "geometry": {"coordinates": [-78.6933333333333, 37.8783333333333], "type": "Point"}, "properties": {}}, "geo_point_2d": {"lon": -78.6933333333333, "lat": 37.8783333333333}},{"name": "India, Ujjain Yantra Mandir / Temple of Instruments", "instruments": null, "altitude": null, "type": "Ancient Astronomical Observatory", "description": "Ancient Astronomical Observatory", "geometry": {"type": "Feature", "geometry": {"coordinates": [75.7775, 23.183333], "type": "Point"}, "properties": {}}, "geo_point_2d": {"lon": 75.7775, "lat": 23.183333}},{"name": "Fleurs Radio Observatory R Kemps Creek, New South Wales", "instruments": "Radio", "altitude": 45, "type": "Modern Astronomical Observatory", "description": "Modern Astronomical Observatory [45 meters AMSL]", "geometry": {"type": "Feature", "geometry": {"coordinates": [150.775, -33.8633333333333], "type": "Point"}, "properties": {}}, "geo_point_2d": {"lon": 150.775, "lat": -33.8633333333333}},{"name": "Cointe Observatory Li\u00e8ge", "instruments": null, "altitude": 127, "type": "Modern Astronomical Observatory", "description": "Modern Astronomical Observatory [127 meters AMSL]", "geometry": {"type": "Feature", "geometry": {"coordinates": [5.565, 50.6183333333333], "type": "Point"}, "properties": {}}, "geo_point_2d": {"lon": 5.565, "lat": 50.6183333333333}},{"name": "Royal Observatory of Belgium R Uccle", "instruments": "Radio", "altitude": 105, "type": "Modern Astronomical Observatory", "description": "Modern Astronomical Observatory [105 meters AMSL]", "geometry": {"type": "Feature", "geometry": {"coordinates": [4.35833333333333, 50.798333333333304], "type": "Point"}, "properties": {}}, "geo_point_2d": {"lon": 4.35833333333333, "lat": 50.798333333333304}},{"name": "Prostejov Observatory Prostejov", "instruments": null, "altitude": 225, "type": "Modern Astronomical Observatory", "description": "Modern Astronomical Observatory [225 meters AMSL]", "geometry": {"type": "Feature", "geometry": {"coordinates": [17.1633333333333, 49.4866666666667], "type": "Point"}, "properties": {}}, "geo_point_2d": {"lon": 17.1633333333333, "lat": 49.4866666666667}},{"name": "Meudon Observatory Meudon", "instruments": null, "altitude": 162, "type": "Modern Astronomical Observatory", "description": "Modern Astronomical Observatory [162 meters AMSL]", "geometry": {"type": "Feature", "geometry": {"coordinates": [2.23166666666667, 48.805], "type": "Point"}, "properties": {}}, "geo_point_2d": {"lon": 2.23166666666667, "lat": 48.805}},{"name": "Archenhold Observatory Berlin", "instruments": null, "altitude": 41, "type": "Modern Astronomical Observatory", "description": "Modern Astronomical Observatory [41 meters AMSL]", "geometry": {"type": "Feature", "geometry": {"coordinates": [13.4783333333333, 52.4866666666667], "type": "Point"}, "properties": {}}, "geo_point_2d": {"lon": 13.4783333333333, "lat": 52.4866666666667}},{"name": "Medicina Radio Astronomical Sta. R Medicina", "instruments": "Radio", "altitude": 44, "type": "Modern Astronomical Observatory", "description": "Modern Astronomical Observatory [44 meters AMSL]", "geometry": {"type": "Feature", "geometry": {"coordinates": [11.645, 44.52], "type": "Point"}, "properties": {}}, "geo_point_2d": {"lon": 11.645, "lat": 44.52}},{"name": "Vilnius Astronomical Observatory Vilnius", "instruments": null, "altitude": 122, "type": "Modern Astronomical Observatory", "description": "Modern Astronomical Observatory [122 meters AMSL]", "geometry": {"type": "Feature", "geometry": {"coordinates": [25.2866666666667, 54.6833333333333], "type": "Point"}, "properties": {}}, "geo_point_2d": {"lon": 25.2866666666667, "lat": 54.6833333333333}},{"name": "Deep Space Sta. R Robledo", "instruments": "Radio", "altitude": 774, "type": "Modern Astronomical Observatory", "description": "Modern Astronomical Observatory [774 meters AMSL]", "geometry": {"type": "Feature", "geometry": {"coordinates": [-4.24833333333333, 40.43], "type": "Point"}, "properties": {}}, "geo_point_2d": {"lon": -4.24833333333333, "lat": 40.43}},{"name": "European Incoh. Scatter Facility R Kiruna", "instruments": "Radio", "altitude": 418, "type": "Modern Astronomical Observatory", "description": "Modern Astronomical Observatory [418 meters AMSL]", "geometry": {"type": "Feature", "geometry": {"coordinates": [20.435, 67.86], "type": "Point"}, "properties": {}}, "geo_point_2d": {"lon": 20.435, "lat": 67.86}},{"name": "Kiev University Observatory Kiev", "instruments": null, "altitude": 184, "type": "Modern Astronomical Observatory", "description": "Modern Astronomical Observatory [184 meters AMSL]", "geometry": {"type": "Feature", "geometry": {"coordinates": [30.4983333333333, 50.4533333333333], "type": "Point"}, "properties": {}}, "geo_point_2d": {"lon": 30.4983333333333, "lat": 50.4533333333333}},{"name": "Lowell Observatory Sta. Flagstaff/Anderson Mesa", "instruments": null, "altitude": 2200, "type": "Modern Astronomical Observatory", "description": "Modern Astronomical Observatory [2200 meters AMSL]", "geometry": {"type": "Feature", "geometry": {"coordinates": [-111.536666666667, 35.0966666666667], "type": "Point"}, "properties": {}}, "geo_point_2d": {"lon": -111.536666666667, "lat": 35.0966666666667}},{"name": "Owens Valley Radio Observatory R Big Pine", "instruments": "Radio", "altitude": 1236, "type": "Modern Astronomical Observatory", "description": "Modern Astronomical Observatory [1236 meters AMSL]", "geometry": {"type": "Feature", "geometry": {"coordinates": [-118.281666666667, 37.2316666666667], "type": "Point"}, "properties": {}}, "geo_point_2d": {"lon": -118.281666666667, "lat": 37.2316666666667}},{"name": "Brevard Community College Observatory Cocoa", "instruments": null, "altitude": 17, "type": "Modern Astronomical Observatory", "description": "Modern Astronomical Observatory [17 meters AMSL]", "geometry": {"type": "Feature", "geometry": {"coordinates": [-80.7616666666667, 28.385], "type": "Point"}, "properties": {}}, "geo_point_2d": {"lon": -80.7616666666667, "lat": 28.385}},{"name": "LURE Observatory L Kahului/Haleakala, Maui", "instruments": "Laser", "altitude": 3049, "type": "Modern Astronomical Observatory", "description": "Modern Astronomical Observatory [3049 meters AMSL]", "geometry": {"type": "Feature", "geometry": {"coordinates": [-156.258333333333, 20.71], "type": "Point"}, "properties": {}}, "geo_point_2d": {"lon": -156.258333333333, "lat": 20.71}},{"name": "Grant O. Gale Observatory Grinnell", "instruments": null, "altitude": 318, "type": "Modern Astronomical Observatory", "description": "Modern Astronomical Observatory [318 meters AMSL]", "geometry": {"type": "Feature", "geometry": {"coordinates": [-92.72, 41.7566666666667], "type": "Point"}, "properties": {}}, "geo_point_2d": {"lon": -92.72, "lat": 41.7566666666667}},{"name": "Clyde W. Tombaugh Observatory Lawrence", "instruments": null, "altitude": 323, "type": "Modern Astronomical Observatory", "description": "Modern Astronomical Observatory [323 meters AMSL]", "geometry": {"type": "Feature", "geometry": {"coordinates": [-95.25, 38.96], "type": "Point"}, "properties": {}}, "geo_point_2d": {"lon": -95.25, "lat": 38.96}},{"name": "Los Alamos", "instruments": null, "altitude": null, "type": "Modern Astronomical Observatory", "description": "Modern Astronomical Observatory", "geometry": {"type": "Feature", "geometry": {"coordinates": [-106.245597, 35.775125], "type": "Point"}, "properties": {}}, "geo_point_2d": {"lon": -106.245597, "lat": 35.775125}},{"name": "Bradstreet", "instruments": null, "altitude": null, "type": "Modern Astronomical Observatory", "description": "Modern Astronomical Observatory", "geometry": {"type": "Feature", "geometry": {"coordinates": [-75.368889, 40.050278], "type": "Point"}, "properties": {}}, "geo_point_2d": {"lon": -75.368889, "lat": 40.050278}},{"name": "Thompson Observatory Beloit", "instruments": null, "altitude": 255, "type": "Modern Astronomical Observatory", "description": "Modern Astronomical Observatory [255 meters AMSL]", "geometry": {"type": "Feature", "geometry": {"coordinates": [-89.0316666666667, 42.505], "type": "Point"}, "properties": {}}, "geo_point_2d": {"lon": -89.0316666666667, "lat": 42.505}},{"name": "United Kingdom, England, Stonehenge", "instruments": null, "altitude": null, "type": "Ancient Astronomical Observatory", "description": "Ancient Astronomical Observatory", "geometry": {"type": "Feature", "geometry": {"coordinates": [-1.826412, 51.178861], "type": "Point"}, "properties": {}}, "geo_point_2d": {"lon": -1.826412, "lat": 51.178861}},{"name": "USA Utah, Hovenweep", "instruments": null, "altitude": null, "type": "Ancient Astronomical Observatory", "description": "Ancient Astronomical Observatory", "geometry": {"type": "Feature", "geometry": {"coordinates": [-109.0803, 37.3858], "type": "Point"}, "properties": {}}, "geo_point_2d": {"lon": -109.0803, "lat": 37.3858}},{"name": "Australian Natl. Radio Astronomical Observatory R Parkes, New South  Wales", "instruments": "Radio", "altitude": 392, "type": "Modern Astronomical Observatory", "description": "Modern Astronomical Observatory [392 meters AMSL]", "geometry": {"type": "Feature", "geometry": {"coordinates": [148.261666666667, -33.0], "type": "Point"}, "properties": {}}, "geo_point_2d": {"lon": 148.261666666667, "lat": -33.0}},{"name": "Royal Observatory Radio Astronomical Sta. R Humain", "instruments": "Radio", "altitude": 293, "type": "Modern Astronomical Observatory", "description": "Modern Astronomical Observatory [293 meters AMSL]", "geometry": {"type": "Feature", "geometry": {"coordinates": [5.255, 50.1916666666667], "type": "Point"}, "properties": {}}, "geo_point_2d": {"lon": 5.255, "lat": 50.1916666666667}},{"name": "Cerro Armazones Observatory", "instruments": null, "altitude": null, "type": "Modern Astronomical Observatory", "description": "Modern Astronomical Observatory", "geometry": {"type": "Feature", "geometry": {"coordinates": [-70.1963888888889, -24.5975], "type": "Point"}, "properties": {}}, "geo_point_2d": {"lon": -70.1963888888889, "lat": -24.5975}},{"name": "Cerro El Roble Astronomical Observatory Santiago/Cerro El Roble", "instruments": null, "altitude": 2220, "type": "Modern Astronomical Observatory", "description": "Modern Astronomical Observatory [2220 meters AMSL]", "geometry": {"type": "Feature", "geometry": {"coordinates": [-71.02, -32.9816666666667], "type": "Point"}, "properties": {}}, "geo_point_2d": {"lon": -71.02, "lat": -32.9816666666667}},{"name": "Hvar Observatory Hvar", "instruments": null, "altitude": 238, "type": "Modern Astronomical Observatory", "description": "Modern Astronomical Observatory [238 meters AMSL]", "geometry": {"type": "Feature", "geometry": {"coordinates": [16.4483333333333, 43.1783333333333], "type": "Point"}, "properties": {}}, "geo_point_2d": {"lon": 16.4483333333333, "lat": 43.1783333333333}},{"name": "Hoher List Observatory Daun/Hoher List", "instruments": null, "altitude": 533, "type": "Modern Astronomical Observatory", "description": "Modern Astronomical Observatory [533 meters AMSL]", "geometry": {"type": "Feature", "geometry": {"coordinates": [6.85, 50.1633333333333], "type": "Point"}, "properties": {}}, "geo_point_2d": {"lon": 6.85, "lat": 50.1633333333333}},{"name": "Institute of Geodesy Astronomical Observatory Hannover", "instruments": null, "altitude": 71, "type": "Modern Astronomical Observatory", "description": "Modern Astronomical Observatory [71 meters AMSL]", "geometry": {"type": "Feature", "geometry": {"coordinates": [9.71333333333333, 52.3883333333333], "type": "Point"}, "properties": {}}, "geo_point_2d": {"lon": 9.71333333333333, "lat": 52.3883333333333}},{"name": "Heliophysical Observatory Debrecen", "instruments": null, "altitude": 132, "type": "Modern Astronomical Observatory", "description": "Modern Astronomical Observatory [132 meters AMSL]", "geometry": {"type": "Feature", "geometry": {"coordinates": [21.6233333333333, 47.56], "type": "Point"}, "properties": {}}, "geo_point_2d": {"lon": 21.6233333333333, "lat": 47.56}},{"name": "Hiraiso Solar Terr. Rsch. Center R Nakaminato", "instruments": "Radio", "altitude": 27, "type": "Modern Astronomical Observatory", "description": "Modern Astronomical Observatory [27 meters AMSL]", "geometry": {"type": "Feature", "geometry": {"coordinates": [140.625, 36.3666666666667], "type": "Point"}, "properties": {}}, "geo_point_2d": {"lon": 140.625, "lat": 36.3666666666667}},{"name": "Kiso Observatory Kiso", "instruments": null, "altitude": 1130, "type": "Modern Astronomical Observatory", "description": "Modern Astronomical Observatory [1130 meters AMSL]", "geometry": {"type": "Feature", "geometry": {"coordinates": [137.628333333333, 35.7933333333333], "type": "Point"}, "properties": {}}, "geo_point_2d": {"lon": 137.628333333333, "lat": 35.7933333333333}},{"name": "Coimbra Astronomical Observatory Coimbra", "instruments": null, "altitude": 99, "type": "Modern Astronomical Observatory", "description": "Modern Astronomical Observatory [99 meters AMSL]", "geometry": {"type": "Feature", "geometry": {"coordinates": [-8.43, 40.2066666666667], "type": "Point"}, "properties": {}}, "geo_point_2d": {"lon": -8.43, "lat": 40.2066666666667}},{"name": "T\u00fcbitak National Observatory Antalya/Mt. Bakirlitepe", "instruments": null, "altitude": 2515, "type": "Modern Astronomical Observatory", "description": "Modern Astronomical Observatory [2515 meters AMSL]", "geometry": {"type": "Feature", "geometry": {"coordinates": [30.335, 36.825], "type": "Point"}, "properties": {}}, "geo_point_2d": {"lon": 30.335, "lat": 36.825}},{"name": "Institute of Radio Astronomical R Kharkov", "instruments": "Radio", "altitude": 150, "type": "Modern Astronomical Observatory", "description": "Modern Astronomical Observatory [150 meters AMSL]", "geometry": {"type": "Feature", "geometry": {"coordinates": [36.9333333333333, 49.6333333333333], "type": "Point"}, "properties": {}}, "geo_point_2d": {"lon": 36.9333333333333, "lat": 49.6333333333333}},{"name": "Main Astronomical Observatory Kiev", "instruments": null, "altitude": 188, "type": "Modern Astronomical Observatory", "description": "Modern Astronomical Observatory [188 meters AMSL]", "geometry": {"type": "Feature", "geometry": {"coordinates": [30.5066666666667, 50.365], "type": "Point"}, "properties": {}}, "geo_point_2d": {"lon": 30.5066666666667, "lat": 50.365}},{"name": "Odessa Observatory Odessa", "instruments": null, "altitude": 60, "type": "Modern Astronomical Observatory", "description": "Modern Astronomical Observatory [60 meters AMSL]", "geometry": {"type": "Feature", "geometry": {"coordinates": [30.7583333333333, 46.4766666666667], "type": "Point"}, "properties": {}}, "geo_point_2d": {"lon": 30.7583333333333, "lat": 46.4766666666667}},{"name": "Northern Arizona University Observatory Flagstaff", "instruments": null, "altitude": 2110, "type": "Modern Astronomical Observatory", "description": "Modern Astronomical Observatory [2110 meters AMSL]", "geometry": {"type": "Feature", "geometry": {"coordinates": [-111.653333333333, 35.185], "type": "Point"}, "properties": {}}, "geo_point_2d": {"lon": -111.653333333333, "lat": 35.185}},{"name": "Big Bear Solar Observatory Big Bear City", "instruments": null, "altitude": 2067, "type": "Modern Astronomical Observatory", "description": "Modern Astronomical Observatory [2067 meters AMSL]", "geometry": {"type": "Feature", "geometry": {"coordinates": [-116.921, 34.258], "type": "Point"}, "properties": {}}, "geo_point_2d": {"lon": -116.921, "lat": 34.258}},{"name": "Chabot Space & Science Center Oakland", "instruments": null, "altitude": 476, "type": "Modern Astronomical Observatory", "description": "Modern Astronomical Observatory [476 meters AMSL]", "geometry": {"type": "Feature", "geometry": {"coordinates": [-122.181666666667, 37.8183333333333], "type": "Point"}, "properties": {}}, "geo_point_2d": {"lon": -122.181666666667, "lat": 37.8183333333333}},{"name": "Naval Rsch. Lab. Radio Astronomical Observatory R Washington", "instruments": "Radio", "altitude": 30, "type": "Modern Astronomical Observatory", "description": "Modern Astronomical Observatory [30 meters AMSL]", "geometry": {"type": "Feature", "geometry": {"coordinates": [-77.0266666666667, 38.8216666666667], "type": "Point"}, "properties": {}}, "geo_point_2d": {"lon": -77.0266666666667, "lat": 38.8216666666667}},{"name": "Bradley Observatory Decatur", "instruments": null, "altitude": 316, "type": "Modern Astronomical Observatory", "description": "Modern Astronomical Observatory [316 meters AMSL]", "geometry": {"type": "Feature", "geometry": {"coordinates": [-84.2933333333333, 33.765], "type": "Point"}, "properties": {}}, "geo_point_2d": {"lon": -84.2933333333333, "lat": 33.765}},{"name": "Black Moshannon Observatory State College/Rattlesnake Mtn.", "instruments": null, "altitude": 738, "type": "Modern Astronomical Observatory", "description": "Modern Astronomical Observatory [738 meters AMSL]", "geometry": {"type": "Feature", "geometry": {"coordinates": [-78.005, 40.9216666666667], "type": "Point"}, "properties": {}}, "geo_point_2d": {"lon": -78.005, "lat": 40.9216666666667}},{"name": "Pine Bluff Observatory Pine Bluff", "instruments": null, "altitude": 366, "type": "Modern Astronomical Observatory", "description": "Modern Astronomical Observatory [366 meters AMSL]", "geometry": {"type": "Feature", "geometry": {"coordinates": [-89.685, 43.0783333333333], "type": "Point"}, "properties": {}}, "geo_point_2d": {"lon": -89.685, "lat": 43.0783333333333}},{"name": "Rothney Astrophysical Observatory I Priddis, Alberta", "instruments": "Infrared", "altitude": 1272, "type": "Modern Astronomical Observatory", "description": "Modern Astronomical Observatory [1272 meters AMSL]", "geometry": {"type": "Feature", "geometry": {"coordinates": [-114.288333333333, 50.8683333333333], "type": "Point"}, "properties": {}}, "geo_point_2d": {"lon": -114.288333333333, "lat": 50.8683333333333}},{"name": "Purple Mountain Observatory R Nanjing/Purple Mtn.", "instruments": "Radio", "altitude": 267, "type": "Modern Astronomical Observatory", "description": "Modern Astronomical Observatory [267 meters AMSL]", "geometry": {"type": "Feature", "geometry": {"coordinates": [118.821666666667, 32.0666666666667], "type": "Point"}, "properties": {}}, "geo_point_2d": {"lon": 118.821666666667, "lat": 32.0666666666667}},{"name": "Abastumani Astrophysical Observatory R Abastumani/Mt.  Kanobili", "instruments": "Radio", "altitude": 1583, "type": "Modern Astronomical Observatory", "description": "Modern Astronomical Observatory [1583 meters AMSL]", "geometry": {"type": "Feature", "geometry": {"coordinates": [42.8216666666667, 41.755], "type": "Point"}, "properties": {}}, "geo_point_2d": {"lon": 42.8216666666667, "lat": 41.755}},{"name": "Wilhelm Foerster Observatory Berlin", "instruments": null, "altitude": 78, "type": "Modern Astronomical Observatory", "description": "Modern Astronomical Observatory [78 meters AMSL]", "geometry": {"type": "Feature", "geometry": {"coordinates": [13.3533333333333, 52.4583333333333], "type": "Point"}, "properties": {}}, "geo_point_2d": {"lon": 13.3533333333333, "lat": 52.4583333333333}},{"name": "Catholic University Astronomical Institute Nijmegen", "instruments": null, "altitude": 62, "type": "Modern Astronomical Observatory", "description": "Modern Astronomical Observatory [62 meters AMSL]", "geometry": {"type": "Feature", "geometry": {"coordinates": [5.86833333333333, 51.825], "type": "Point"}, "properties": {}}, "geo_point_2d": {"lon": 5.86833333333333, "lat": 51.825}},{"name": "Bucharest Astronomical Observatory Bucharest", "instruments": null, "altitude": 81, "type": "Modern Astronomical Observatory", "description": "Modern Astronomical Observatory [81 meters AMSL]", "geometry": {"type": "Feature", "geometry": {"coordinates": [26.0966666666667, 44.4133333333333], "type": "Point"}, "properties": {}}, "geo_point_2d": {"lon": 26.0966666666667, "lat": 44.4133333333333}},{"name": "Submillimeter Telescope Observatory R Safford/Mt. Graham", "instruments": "Radio", "altitude": 3190, "type": "Modern Astronomical Observatory", "description": "Modern Astronomical Observatory [3190 meters AMSL]", "geometry": {"type": "Feature", "geometry": {"coordinates": [-109.891666666667, 32.701666666666696], "type": "Point"}, "properties": {}}, "geo_point_2d": {"lon": -109.891666666667, "lat": 32.701666666666696}},{"name": "Subaru Tel. Hilo/Mauna Kea, Hawaii", "instruments": null, "altitude": 4163, "type": "Modern Astronomical Observatory", "description": "Modern Astronomical Observatory [4163 meters AMSL]", "geometry": {"type": "Feature", "geometry": {"coordinates": [-155.476666666667, 19.825], "type": "Point"}, "properties": {}}, "geo_point_2d": {"lon": -155.476666666667, "lat": 19.825}},{"name": "George R. Wallace Jr. Aph. Observatory Westford", "instruments": null, "altitude": 107, "type": "Modern Astronomical Observatory", "description": "Modern Astronomical Observatory [107 meters AMSL]", "geometry": {"type": "Feature", "geometry": {"coordinates": [-71.485, 42.61], "type": "Point"}, "properties": {}}, "geo_point_2d": {"lon": -71.485, "lat": 42.61}},{"name": "Millstone Hill Radar Observatory R Westford", "instruments": "Radio", "altitude": 156, "type": "Modern Astronomical Observatory", "description": "Modern Astronomical Observatory [156 meters AMSL]", "geometry": {"type": "Feature", "geometry": {"coordinates": [-71.4916666666667, 42.6166666666667], "type": "Point"}, "properties": {}}, "geo_point_2d": {"lon": -71.4916666666667, "lat": 42.6166666666667}},{"name": "Brooks Observatory Mount Pleasant", "instruments": null, "altitude": 258, "type": "Modern Astronomical Observatory", "description": "Modern Astronomical Observatory [258 meters AMSL]", "geometry": {"type": "Feature", "geometry": {"coordinates": [-84.775, 43.5883333333333], "type": "Point"}, "properties": {}}, "geo_point_2d": {"lon": -84.775, "lat": 43.5883333333333}},{"name": "Shattuck Observatory Hanover", "instruments": null, "altitude": 183, "type": "Modern Astronomical Observatory", "description": "Modern Astronomical Observatory [183 meters AMSL]", "geometry": {"type": "Feature", "geometry": {"coordinates": [-72.2833333333333, 43.705], "type": "Point"}, "properties": {}}, "geo_point_2d": {"lon": -72.2833333333333, "lat": 43.705}},{"name": "Ritter Observatory Toledo", "instruments": null, "altitude": 201, "type": "Modern Astronomical Observatory", "description": "Modern Astronomical Observatory [201 meters AMSL]", "geometry": {"type": "Feature", "geometry": {"coordinates": [-83.6133333333333, 41.6616666666667], "type": "Point"}, "properties": {}}, "geo_point_2d": {"lon": -83.6133333333333, "lat": 41.6616666666667}},{"name": "Kutztown University Observatory Kutztown", "instruments": null, "altitude": 158, "type": "Modern Astronomical Observatory", "description": "Modern Astronomical Observatory [158 meters AMSL]", "geometry": {"type": "Feature", "geometry": {"coordinates": [-75.785, 40.515], "type": "Point"}, "properties": {}}, "geo_point_2d": {"lon": -75.785, "lat": 40.515}},{"name": "India, Mathura Yantra Mandir / Temple of Instruments", "instruments": null, "altitude": null, "type": "Ancient Astronomical Observatory", "description": "Ancient Astronomical Observatory", "geometry": {"type": "Feature", "geometry": {"coordinates": [77.675556, 27.494722], "type": "Point"}, "properties": {}}, "geo_point_2d": {"lon": 77.675556, "lat": 27.494722}},{"name": "Alger Observatory Bouzar\u00e9a", "instruments": null, "altitude": 345, "type": "Modern Astronomical Observatory", "description": "Modern Astronomical Observatory [345 meters AMSL]", "geometry": {"type": "Feature", "geometry": {"coordinates": [3.035, 36.8016666666667], "type": "Point"}, "properties": {}}, "geo_point_2d": {"lon": 3.035, "lat": 36.8016666666667}},{"name": "National Observatory of Cosmic Physics San Miguel", "instruments": null, "altitude": 37, "type": "Modern Astronomical Observatory", "description": "Modern Astronomical Observatory [37 meters AMSL]", "geometry": {"type": "Feature", "geometry": {"coordinates": [-58.7316666666667, -34.5566666666667], "type": "Point"}, "properties": {}}, "geo_point_2d": {"lon": -58.7316666666667, "lat": -34.5566666666667}},{"name": "C\u00f4te d'Azur Observatory Nice/Mont Gros", "instruments": null, "altitude": 372, "type": "Modern Astronomical Observatory", "description": "Modern Astronomical Observatory [372 meters AMSL]", "geometry": {"type": "Feature", "geometry": {"coordinates": [7.30166666666667, 43.7233333333333], "type": "Point"}, "properties": {}}, "geo_point_2d": {"lon": 7.30166666666667, "lat": 43.7233333333333}},{"name": "Stephanion Observatory Stephanion", "instruments": null, "altitude": 800, "type": "Modern Astronomical Observatory", "description": "Modern Astronomical Observatory [800 meters AMSL]", "geometry": {"type": "Feature", "geometry": {"coordinates": [22.8283333333333, 37.755], "type": "Point"}, "properties": {}}, "geo_point_2d": {"lon": 22.8283333333333, "lat": 37.755}},{"name": "Brera-Milan Astronomical Observatory Milan", "instruments": null, "altitude": 146, "type": "Modern Astronomical Observatory", "description": "Modern Astronomical Observatory [146 meters AMSL]", "geometry": {"type": "Feature", "geometry": {"coordinates": [9.19166666666667, 45.4666666666667], "type": "Point"}, "properties": {}}, "geo_point_2d": {"lon": 9.19166666666667, "lat": 45.4666666666667}},{"name": "Tokyo Hydrographic Observatory Tokyo", "instruments": null, "altitude": 41, "type": "Modern Astronomical Observatory", "description": "Modern Astronomical Observatory [41 meters AMSL]", "geometry": {"type": "Feature", "geometry": {"coordinates": [139.77, 35.6616666666667], "type": "Point"}, "properties": {}}, "geo_point_2d": {"lon": 139.77, "lat": 35.6616666666667}},{"name": "Dwingeloo Radio Observatory R Dwingeloo", "instruments": "Radio", "altitude": 25, "type": "Modern Astronomical Observatory", "description": "Modern Astronomical Observatory [25 meters AMSL]", "geometry": {"type": "Feature", "geometry": {"coordinates": [6.39666666666667, 52.8133333333333], "type": "Point"}, "properties": {}},